학교구분,학교명,본분교,지역,설립구분,도로명주소,지번주소,위도,경도,학교개교일
대학,국립강릉원주대학교,본교,강원,국립,강원특별자치도 강릉시 죽헌길 7,강원특별자치도 강릉시 지변동 123,37.76569493,128.8700048,1979-03-01
대학,국립강릉원주대학교,제2캠퍼스,강원,국립,강원특별자치도 원주시 흥업면 남원로 150,강원특별자치도 원주시 흥업면 흥업리 7,37.30517245,127.9221473,2007-03-01
대학,강원대학교,본교,강원,국립,강원특별자치도 춘천시 강원대학길 1,강원특별자치도 춘천시 효자동 192-1,37.86802431,127.7483874,1970-03-01
대학,강원대학교,제2캠퍼스,강원,국립,강원특별자치도 삼척시 중앙로 346,강원특별자치도 삼척시 교동 777,37.45079204,129.1599405,2006-03-01
대학,경북대학교,본교,대구,국립,대구광역시 북구 대학로 80,대구광역시 북구 산격동 1370-1,35.88909749,128.6143223,1946-05-28
대학,경상국립대학교,본교,경남,국립,경상남도 진주시 진주대로 501,경상남도 진주시 가좌동 900,35.15671422,128.0980014,1910-04-30
대학,국립공주대학교,본교,충남,국립,충청남도 공주시 공주대학로 56,충청남도 공주시 신관동 182,36.46684834,127.1386693,1948-07-31
대학,국립군산대학교,본교,전북,국립,전북특별자치도 군산시 대학로 558,전북특별자치도 군산시 미룡동 290-2,35.95034571,126.6803568,1979-01-18
대학,국립금오공과대학교,본교,경북,국립,경상북도 구미시 대학로 61,경상북도 구미시 양호동 1,36.14563154,128.3878819,1980-03-01
대학,국립목포대학교,본교,전남,국립,전라남도 무안군 청계면 영산로 1666,전라남도 무안군 청계면 도림리 61,34.91030656,126.4402102,1946-10-31
대학,국립목포해양대학교,본교,전남,국립,전라남도 목포시 해양대학로 91,전라남도 목포시 죽교동 562-84,34.78996375,126.3658262,1993-03-01
대학,국립부경대학교,본교,부산,국립,부산광역시 남구 용소로 45,부산광역시 남구 대연동 430-1,35.13116783,129.1048238,1996-07-06
대학,부산대학교,본교,부산,국립,부산광역시 금정구 부산대학로63번길 2,부산광역시 금정구 장전동 40,35.2322428,129.0838245,1946-05-15
대학,서울대학교,본교,서울,국립대법인,서울특별시 관악구 관악로 1,서울특별시 관악구 신림동 산 56-1,37.46803806,126.9592943,1946-08-22
대학,국립순천대학교,본교,전남,국립,전라남도 순천시 중앙로 255,전라남도 순천시 석현동 313,34.96676128,127.4809231,1982-03-10
대학,국립안동대학교,본교,경북,국립,경상북도 안동시 경동로 1375,경상북도 안동시 송천동 388,36.5414385,128.797564,1979-03-12
대학,전남대학교,본교,광주,국립,광주광역시 북구 용봉로 45,광주광역시 북구 용봉동 300,35.1729465,126.9011018,1951-10-06
대학,전남대학교,제2캠퍼스,전남,국립,전라남도 여수시 대학로 50,전라남도 여수시 둔덕동 산 96-1,34.7729995,127.7005509,2006-03-01
대학,전북대학교,본교,전북,국립,전북특별자치도 전주시 덕진구 백제대로 567,전북특별자치도 전주시 덕진구 금암동 663,35.8411407,127.13159,1951-10-06
대학,제주대학교,본교,제주,국립,제주특별자치도 제주시 제주대학로 102,제주특별자치도 제주시 아라일동 1,33.45723698,126.5642939,1952-05-27
대학,국립창원대학교,본교,경남,국립,경상남도 창원시 의창구 창원대학로 20,경상남도 창원시 의창구 퇴촌동 69,35.24700312,128.6919277,1969-03-21
대학,충남대학교,본교,대전,국립,대전광역시 유성구 대학로 99,대전광역시 유성구 궁동 220,36.36836824,127.3420015,1952-05-25
대학,충북대학교,본교,충북,국립,충청북도 청주시 서원구 충대로 1,충청북도 청주시 서원구 개신동 12,36.63003782,127.4547916,1951-09-27
대학,한국교원대학교,본교,충북,국립,충청북도 청주시 흥덕구 강내면 태성탑연로 250,충청북도 청주시 흥덕구 강내면 다락리 산 7,36.6056652,127.3573247,1984-03-15
대학,한국체육대학교,본교,서울,국립,서울특별시 송파구 양재대로 1239,서울특별시 송파구 방이동 88-15,37.51990463,127.1320005,1976-12-30
대학,국립한국해양대학교,본교,부산,국립,부산광역시 영도구 태종로 727,부산광역시 영도구 동삼동 1,35.07440796,129.0873481,1945-11-05
대학,국립한국교통대학교,본교,충북,국립,충청북도 충주시 대소원면 대학로 50,충청북도 충주시 대소원면 검단리 123,36.9688467,127.8727694,1914-04-01
대학,경남과학기술대학교,본교,경남,국립,경상남도 진주시 동진로 33,경상남도 진주시 칠암동 150-1,35.17926588,128.0920809,1910-04-30
대학,서울과학기술대학교,본교,서울,국립,서울특별시 노원구 공릉로 232,서울특별시 노원구 공릉동 172,37.63307893,127.0767947,2012-03-01
대학,한경국립대학교,본교,경기,국립,경기도 안성시 중앙로 327,경기도 안성시 석정동 55,37.01020238,127.2637664,1939-04-15
대학,국립한밭대학교,본교,대전,국립,대전광역시 유성구 동서대로 125,대전광역시 유성구 덕명동 16-1,36.34526854,127.3052522,2012-03-01
대학,서울시립대학교,본교,서울,공립,서울특별시 동대문구 서울시립대로 163,서울특별시 동대문구 전농동 694,37.58257758,127.0599881,1918-05-01
대학,가톨릭대학교,본교,경기,사립,경기도 부천시 원미구 지봉로 43,경기도 부천시 원미구 역곡동 산 43-1,37.48753137,126.7986015,1995-03-01
대학,가톨릭대학교,제2캠퍼스,서울,사립,서울특별시 서초구 반포대로 222,서울특별시 서초구 반포동 505,37.50239362,127.0058606,1995-03-01
대학,가톨릭대학교,제3캠퍼스,서울,사립,서울특별시 종로구 창경궁로 296-12,서울특별시 종로구 혜화동 90-1,37.58490098,127.0047707,1995-03-01
대학,감리교신학대학교,본교,서울,사립,서울특별시 서대문구 독립문로 56,서울특별시 서대문구 냉천동 31,37.56791676,126.9618924,1887-09-29
대학,강남대학교,본교,경기,사립,경기도 용인시 기흥구 강남로 40,경기도 용인시 기흥구 구갈동 111,37.27412539,127.1320999,1948-08-12
대학,건국대학교,본교,서울,사립,서울특별시 광진구 능동로 120,서울특별시 광진구 화양동 1,37.53918267,127.0747119,1931-05-15
대학,건국대학교(글로컬),분교,충북,사립,충청북도 충주시 충원대로 268,충청북도 충주시 단월동 322,36.94878087,127.9124302,1980-01-05
대학,건양대학교,본교,충남,사립,충청남도 논산시 대학로 121,충청남도 논산시 내동 26,36.18215192,127.1096874,1990-11-28
대학,건양대학교,제2캠퍼스,대전,사립,대전광역시 서구 관저동로 158,대전광역시 서구 관저동 1643,36.30778182,127.3426468,1990-11-28
대학,경기대학교,본교,경기,사립,경기도 수원시 영통구 광교산로 154-42,경기도 수원시 영통구 이의동 산 94-6,37.29801369,127.0331167,1947-11-08
대학,경기대학교,제2캠퍼스,서울,사립,서울특별시 서대문구 경기대로9길 24,서울특별시 서대문구 충정로2가 67-9,37.56519469,126.9622242,1947-11-08
대학,경남대학교,본교,경남,사립,경상남도 창원시 마산합포구 경남대학로 7,경상남도 창원시 마산합포구 월영동 449,35.18432093,128.5550964,1946-12-27
대학,경동대학교,본교,강원,사립,강원특별자치도 고성군 토성면 봉포4길 46,강원특별자치도 고성군 토성면 봉포리 306-5,38.25153391,128.5565425,1997-03-01
대학,대구한의대학교,본교,경북,사립,경상북도 경산시 한의대로 1,경상북도 경산시 유곡동 290-1,35.79398805,128.7773243,1980-12-29
대학,경성대학교,본교,부산,사립,부산광역시 남구 수영로 309,부산광역시 남구 대연동 산 37-1,35.13843836,129.100099,1963-01-28
대학,가천대학교,본교,경기,사립,경기도 성남시 수정구 성남대로 1342,경기도 성남시 수정구 복정동 620-2,37.45123487,127.1293943,2012-03-01
대학,경일대학교,본교,경북,사립,경상북도 경산시 하양읍 가마실길 50,경상북도 경산시 하양읍 부호리 33,35.91106895,128.8020451,1996-12-11
대학,신경주대학교,본교,경북,사립,경상북도 경주시 태종로 188,경상북도 경주시 효현동 670,35.82926585,129.1632394,1987-12-12
대학,경희대학교,본교,서울,사립,서울특별시 동대문구 경희대로 26,서울특별시 동대문구 회기동 1-5,37.59394914,127.054891,1951-05-18
대학,계명대학교,본교,대구,사립,대구광역시 달서구 달구벌대로 1095,대구광역시 달서구 신당동 1000-2,35.85355435,128.4814938,1954-05-20
대학,고려대학교,본교,서울,사립,서울특별시 성북구 안암로 145,서울특별시 성북구 안암동5가 1-2,37.58649222,127.0309796,1905-05-05
대학,고려대학교(세종),분교,세종,사립,세종특별자치시 조치원읍 세종로 2511,세종특별자치시 조치원읍 서창리 208,36.61169462,127.2910027,1980-03-02
대학,고신대학교,본교,부산,사립,부산광역시 영도구 와치로 194,부산광역시 영도구 동삼동 516-36,35.07946942,129.0621819,1946-09-20
대학,가톨릭관동대학교,본교,강원,사립,강원특별자치도 강릉시 범일로579번길 24,강원특별자치도 강릉시 내곡동 522,37.73732878,128.8737046,1955-04-26
대학,광신대학교,본교,광주,사립,광주광역시 북구 양산택지소로 36,광주광역시 북구 본촌동 130,35.21603426,126.8848545,1996-12-11
대학,광운대학교,본교,서울,사립,서울특별시 노원구 광운로 20,서울특별시 노원구 월계동 447-1,37.61932035,127.0583381,1934-05-20
대학,광주가톨릭대학교,본교,전남,사립,전라남도 나주시 남평읍 중남길 12-25,전라남도 나주시 남평읍 남석리 산 67-1,35.01543518,126.8638867,1965-01-13
대학,광주여자대학교,본교,광주,사립,광주광역시 광산구 광주여대길 40,광주광역시 광산구 산정동 산 105-1,35.16312291,126.7963249,1997-03-03
대학,국민대학교,본교,서울,사립,서울특별시 성북구 정릉로 77,서울특별시 성북구 정릉동 861-1,37.61028784,126.9985206,1946-09-01
대학,강서대학교,본교,서울,사립,서울특별시 강서구 까치산로24길 47,서울특별시 강서구 화곡동 953-1,37.54868531,126.8541565,1958-04-19
대학,극동대학교,본교,충북,사립,충청북도 음성군 감곡면 대학길 76-32,충청북도 음성군 감곡면 왕장리 234-4,37.12825493,127.641871,1997-12-05
대학,나사렛대학교,본교,충남,사립,충청남도 천안시 서북구 월봉로 48,충청남도 천안시 서북구 쌍용동 456,36.79834753,127.1194779,1954-09-14
대학,단국대학교,본교,경기,사립,경기도 용인시 수지구 죽전로 152,경기도 용인시 수지구 죽전동 1491,37.32119387,127.1325359,1947-11-03
대학,대구대학교,본교,경북,사립,경상북도 경산시 진량읍 대구대로 201,경상북도 경산시 진량읍 내리리 15,35.90453897,128.8428133,1956-05-01
대학,대구예술대학교,본교,경북,사립,경상북도 칠곡군 가산면 다부거문1길 202,경상북도 칠곡군 가산면 다부리 860,36.03142013,128.5080915,1996-12-11
대학,대구가톨릭대학교,본교,경북,사립,경상북도 경산시 하양읍 하양로 13-13,경상북도 경산시 하양읍 금락리 산 35,35.90896711,128.807422,1914-10-01
대학,세한대학교,본교,전남,사립,전라남도 영암군 삼호읍 녹색로 1113,전라남도 영암군 삼호읍 산호리 280-1,34.74537742,126.483264,1994-03-10
대학,대신대학교,본교,경북,사립,경상북도 경산시 경청로222길 33,경상북도 경산시 백천동 137,35.80394479,128.7451373,1996-12-11
대학,대전가톨릭대학교,본교,세종,사립,세종특별자치시 전의면 가톨릭대학로 30,세종특별자치시 전의면 신방리 263-3,36.6545677,127.1970103,1993-03-01
대학,대전대학교,본교,대전,사립,대전광역시 동구 대학로 62,대전광역시 동구 용운동 96-3,36.33669617,127.4590019,1980-12-29
대학,대진대학교,본교,경기,사립,경기도 포천시 호국로 1007,경기도 포천시 선단동 산 11-1,37.87381021,127.1575541,1991-11-15
대학,서울기독대학교,본교,서울,사립,서울특별시 은평구 갈현로4길 26-2,서울특별시 은평구 신사동 1-19,37.60075686,126.9121924,1997-12-05
대학,덕성여자대학교,본교,서울,사립,서울특별시 도봉구 삼양로144길 33,서울특별시 도봉구 쌍문동 419,37.64950908,127.0163952,1950-05-17
대학,동국대학교,본교,서울,사립,서울특별시 중구 필동로1길 30,서울특별시 중구 필동3가 26-1,37.55893664,126.9987376,1946-09-20
대학,동국대학교(WISE),분교,경북,사립,경상북도 경주시 동대로 123,경상북도 경주시 석장동 707,35.86479385,129.1910309,1978-10-12
대학,동덕여자대학교,본교,서울,사립,서울특별시 성북구 화랑로13길 60,서울특별시 성북구 하월곡동 23-1,37.60681483,127.0411763,1950-05-27
대학,동서대학교,본교,부산,사립,부산광역시 사상구 주례로 47,부산광역시 사상구 주례동 88,35.14611992,129.0070172,1992-03-02
대학,동신대학교,본교,전남,사립,전라남도 나주시 동신대길 67,전라남도 나주시 대호동 252,35.04962488,126.7179925,1986-12-31
대학,동아대학교,본교,부산,사립,부산광역시 사하구 낙동대로550번길 37,부산광역시 사하구 하단동 840,35.11880939,128.968085,1946-11-01
대학,동양대학교,본교,경북,사립,경상북도 영주시 풍기읍 동양대로 145,경상북도 영주시 풍기읍 산법리 574,36.88580302,128.5297793,1994-03-01
대학,동의대학교,본교,부산,사립,부산광역시 부산진구 엄광로 176,부산광역시 부산진구 가야동 467,35.14432081,129.0363092,1979-01-10
대학,루터대학교,본교,경기,사립,경기도 용인시 기흥구 금화로82번길 20,경기도 용인시 기흥구 상갈동 17,37.26443438,127.1133734,1997-12-05
대학,명지대학교,본교,경기,사립,경기도 용인시 처인구 명지로 116,경기도 용인시 처인구 남동 555,37.22180726,127.1901837,1948-09-07
대학,명지대학교,제2캠퍼스,서울,사립,서울특별시 서대문구 거북골로 34,서울특별시 서대문구 남가좌동 50-3,37.58037702,126.9213485,1948-09-07
대학,목원대학교,본교,대전,사립,대전광역시 서구 도안북로 88,대전광역시 서구 도안동 800,36.32886613,127.3374467,1965-01-13
대학,배재대학교,본교,대전,사립,대전광역시 서구 배재로 155-40,대전광역시 서구 도마동 439-6,36.32323828,127.3660745,1980-12-29
대학,부산가톨릭대학교,본교,부산,사립,부산광역시 금정구 오륜대로 57,부산광역시 금정구 부곡동 9,35.24467531,129.096872,1990-12-24
대학,부산외국어대학교,본교,부산,사립,부산광역시 금정구 금샘로485번길 65,부산광역시 금정구 남산동 857-1,35.26618949,129.0805533,1982-03-12
대학,삼육대학교,본교,서울,사립,서울특별시 노원구 화랑로 815,서울특별시 노원구 공릉동 26-21,37.64335737,127.1088503,1962-02-27
대학,상명대학교,본교,서울,사립,서울특별시 종로구 홍지문2길 20,서울특별시 종로구 홍지동 7-1,37.60410891,126.9551595,1965-01-13
대학,상지대학교,본교,강원,사립,강원특별자치도 원주시 상지대길 83,강원특별자치도 원주시 우산동 660,37.36911929,127.9299151,1955-06-10
대학,서강대학교,본교,서울,사립,서울특별시 마포구 백범로 35,서울특별시 마포구 신수동 1-1,37.55146931,126.943025,1960-04-18
대학,서경대학교,본교,서울,사립,서울특별시 성북구 서경로 124,서울특별시 성북구 정릉동 산 16-1,37.61541478,127.0135658,1992-09-01
대학,서울신학대학교,본교,경기,사립,경기도 부천시 소사구 호현로489번길 52,경기도 부천시 소사구 소사본동 101-1,37.47832495,126.7900035,1959-02-26
대학,서울여자대학교,본교,서울,사립,서울특별시 노원구 화랑로 621,서울특별시 노원구 공릉동 126,37.62878266,127.0889915,1960-12-12
대학,서울장신대학교,본교,경기,사립,경기도 광주시 경안로 145,경기도 광주시 경안동 219-1,37.40918211,127.2454526,1984-12-21
대학,서원대학교,본교,충북,사립,충청북도 청주시 서원구 무심서로 377-3,충청북도 청주시 서원구 모충동 231,36.62597974,127.4821176,1968-03-09
대학,선문대학교,본교,충남,사립,충청남도 아산시 탕정면 선문로221번길 70,충청남도 아산시 탕정면 갈산리 100,36.80104126,127.0757328,1986-03-03
대학,성결대학교,본교,경기,사립,경기도 안양시 만안구 성결대학로 53,경기도 안양시 만안구 안양동 400-10,37.37986572,126.9288104,1965-01-13
대학,성공회대학교,본교,서울,사립,서울특별시 구로구 연동로 320,서울특별시 구로구 항동 1-1,37.4875236,126.8261635,1992-12-23
대학,성균관대학교,본교,서울,사립,서울특별시 종로구 성균관로 25-2,서울특별시 종로구 명륜3가 53-21,37.58722841,126.9931151,1946-09-25
대학,성신여자대학교,본교,서울,사립,서울특별시 성북구 보문로34다길 2,서울특별시 성북구 돈암동 173-1,37.59165248,127.0221456,1965-01-13
대학,세명대학교,본교,충북,사립,충청북도 제천시 세명로 65,충청북도 제천시 신월동 579,37.17384235,128.1961585,1990-11-28
대학,세종대학교,본교,서울,사립,서울특별시 광진구 능동로 209,서울특별시 광진구 군자동 98,37.55160814,127.0731832,1978-10-07
대학,수원가톨릭대학교,본교,경기,사립,경기도 화성시 봉담읍 왕림1길 67,경기도 화성시 봉담읍 왕림리 220-1,37.19578749,126.9331917,1984-03-02
대학,수원대학교,본교,경기,사립,경기도 화성시 봉담읍 와우안길 17,경기도 화성시 봉담읍 와우리 1-2,37.21011748,126.9794804,1981-12-26
대학,숙명여자대학교,본교,서울,사립,서울특별시 용산구 청파로47길 90,서울특별시 용산구 청파동2가 53,37.54528623,126.9654125,1938-12-21
대학,순천향대학교,본교,충남,사립,충청남도 아산시 신창면 순천향로 22,충청남도 아산시 신창면 읍내리 646,36.77137189,126.9341338,1978-03-01
대학,숭실대학교,본교,서울,사립,서울특별시 동작구 상도로 369,서울특별시 동작구 상도동 511,37.49642897,126.9551579,1897-10-10
대학,신라대학교,본교,부산,사립,부산광역시 사상구 백양대로700번길 140,부산광역시 사상구 괘법동 산 1-23,35.17204045,128.997735,1969-12-27
대학,아신대학교,본교,경기,사립,경기도 양평군 옥천면 경강로 1276,경기도 양평군 옥천면 아신리 산 151-1,37.51121707,127.4289283,1981-12-26
대학,아주대학교,본교,경기,사립,경기도 수원시 영통구 월드컵로 206,경기도 수원시 영통구 원천동 산 5-1,37.28305638,127.04366,1973-03-15
대학,안양대학교,본교,경기,사립,경기도 안양시 만안구 삼덕로37번길 22,경기도 안양시 만안구 안양동 708-113,37.39176819,126.9205263,1948-09-17
대학,안양대학교,제2캠퍼스,인천,사립,인천광역시 강화군 불은면 중앙로 602-14,인천광역시 강화군 불은면 삼성리 809-170,37.71224742,126.4446642,1948-09-17
대학,연세대학교,본교,서울,사립,서울특별시 서대문구 연세로 50,서울특별시 서대문구 신촌동 134,37.56380644,126.9429309,1957-01-05
대학,연세대학교(미래),분교,강원,사립,강원특별자치도 원주시 흥업면 연세대길 1,강원특별자치도 원주시 흥업면 매지리 1496,37.2748331,127.9043277,1977-12-28
대학,영남대학교,본교,경북,사립,경상북도 경산시 대학로 280,경상북도 경산시 대동 214-1,35.83049163,128.7521801,1967-12-22
대학,영남신학대학교,본교,경북,사립,경상북도 경산시 진량읍 봉회1길 26,경상북도 경산시 진량읍 봉회리 117,35.88063594,128.8164972,1993-12-17
대학,유원대학교,본교,충북,사립,충청북도 영동군 영동읍 대학로 310,충청북도 영동군 영동읍 설계리 54,36.19589454,127.7990854,1993-12-17
대학,영산선학대학교,본교,전남,사립,전라남도 영광군 백수읍 성지로 1357,전라남도 영광군 백수읍 길용리 26,35.32735233,126.44134,1997-03-03
대학,용인대학교,본교,경기,사립,경기도 용인시 처인구 용인대학로 134,경기도 용인시 처인구 삼가동 470,37.22787888,127.1707243,1953-06-15
대학,우석대학교,본교,전북,사립,전북특별자치도 완주군 삼례읍 삼례로 443,전북특별자치도 완주군 삼례읍 후정리 490,35.91154155,127.067695,1979-05-10
대학,울산대학교,본교,울산,사립,울산광역시 남구 대학로 93,울산광역시 남구 무거동 665,35.54187596,129.2575838,1970-03-16
대학,원광대학교,본교,전북,사립,전북특별자치도 익산시 익산대로 460,전북특별자치도 익산시 신동 272,35.97171397,126.9602237,1951-09-05
대학,위덕대학교,본교,경북,사립,경상북도 경주시 강동면 동해대로 261,경상북도 경주시 강동면 유금리 525,36.01611112,129.2825906,1995-12-16
대학,을지대학교,본교,대전,사립,대전광역시 중구 계룡로771번길 77,대전광역시 중구 목동 24-14,36.33302221,127.4055717,1967-03-21
대학,을지대학교,제2캠퍼스,경기,사립,경기도 성남시 수정구 산성대로 553,경기도 성남시 수정구 양지동 212,37.46097891,127.1651468,1967-03-21
대학,이화여자대학교,본교,서울,사립,서울특별시 서대문구 이화여대길 52,서울특별시 서대문구 대현동 11-1,37.56446452,126.9502888,1946-08-15
대학,인제대학교,본교,경남,사립,경상남도 김해시 인제로 197,경상남도 김해시 어방동 607,35.25281009,128.9005153,1979-01-12
대학,인제대학교,제2캠퍼스,부산,사립,부산광역시 부산진구 복지로 75,부산광역시 부산진구 개금동 633-165,35.14645348,129.0205712,1979-01-12
대학,인천가톨릭대학교,제2캠퍼스,인천,사립,인천광역시 연수구 송도문화로120번길 20,인천광역시 연수구 송도동 193-3,37.3726903,126.6632399,2010-03-01
대학,인천가톨릭대학교,본교,인천,사립,인천광역시 강화군 양도면 고려왕릉로 53-1,인천광역시 강화군 양도면 도장리 495,37.65667342,126.4500083,1996-03-01
대학,인하대학교,본교,인천,사립,인천광역시 미추홀구 인하로 100,인천광역시 미추홀구 용현동 253-5,37.45144803,126.6515423,1954-04-24
대학,장로회신학대학교,본교,서울,사립,서울특별시 광진구 광장로5길 25-1,서울특별시 광진구 광장동 353,37.5502659,127.1031347,1961-02-02
대학,전주대학교,본교,전북,사립,전북특별자치도 전주시 완산구 천잠로 303,전북특별자치도 전주시 완산구 효자동2가 1080,35.81616417,127.0888841,1953-05-05
대학,조선대학교,본교,광주,사립,광주광역시 동구 조선대길 146,광주광역시 동구 서석동 산 57-1,35.14600564,126.9343635,1946-09-29
대학,중부대학교,본교,충남,사립,충청남도 금산군 추부면 대학로 201,충청남도 금산군 추부면 마전리 765,36.19197171,127.448704,1993-03-01
대학,중앙대학교,제2캠퍼스,경기,사립,경기도 안성시 대덕면 서동대로 4726,경기도 안성시 대덕면 내리 72-1,37.0004292,127.2287087,1916-10-17
대학,중앙대학교,본교,서울,사립,서울특별시 동작구 흑석로 84,서울특별시 동작구 흑석동 221,37.50472672,126.9538339,1916-10-17
대학,중앙승가대학교,본교,경기,사립,경기도 김포시 승가로 123,경기도 김포시 풍무동 670-1,37.60693504,126.7088665,1979-03-18
대학,백석대학교,본교,충남,사립,충청남도 천안시 동남구 백석대학로 1,충청남도 천안시 동남구 안서동 393,36.83883721,127.1825206,1994-03-01
대학,청주대학교,본교,충북,사립,충청북도 청주시 청원구 대성로 298,충청북도 청주시 청원구 내덕동 36,36.6508565,127.4951991,1947-06-06
대학,총신대학교,본교,서울,사립,서울특별시 동작구 사당로 143,서울특별시 동작구 사당동 200-1,37.48792901,126.9667631,1967-06-02
대학,추계예술대학교,본교,서울,사립,서울특별시 서대문구 북아현로11가길 7,서울특별시 서대문구 북아현동 190-1,37.56317672,126.9540593,1996-12-11
대학,한국침례신학대학교,본교,대전,사립,대전광역시 유성구 북유성대로 190,대전광역시 유성구 하기동 산 15-6,36.38473349,127.3230428,1973-12-22
대학,칼빈대학교,본교,경기,사립,경기도 용인시 기흥구 마북로 184,경기도 용인시 기흥구 마북동 142-12,37.30514593,127.1286864,1997-03-03
대학,평택대학교,본교,경기,사립,경기도 평택시 서동대로 3825,경기도 평택시 용이동 605,36.99463923,127.1339685,1990-11-28
대학,차의과학대학교,본교,경기,사립,경기도 포천시 해룡로 120,경기도 포천시 동교동 198-1,37.85598798,127.1375048,1996-12-11
대학,포항공과대학교,본교,경북,사립,경상북도 포항시 남구 청암로 77,경상북도 포항시 남구 지곡동 166-14,36.01281056,129.3267049,1986-12-03
대학,한국기술교육대학교,본교,충남,사립,충청남도 천안시 동남구 병천면 충절로 1600,충청남도 천안시 동남구 병천면 가전리 307,36.76510495,127.2812004,1991-11-02
대학,한국성서대학교,본교,서울,사립,서울특별시 노원구 동일로214길 32,서울특별시 노원구 상계동 205-4,37.64896177,127.063751,1996-12-11
대학,한국외국어대학교,본교,서울,사립,서울특별시 동대문구 이문로 107,서울특별시 동대문구 이문동 270-1,37.59829668,127.0579424,1954-04-20
대학,한국항공대학교,본교,경기,사립,경기도 고양시 덕양구 항공대학로 76,경기도 고양시 덕양구 화전동 646-6,37.59901633,126.8641725,1952-06-16
대학,한남대학교,본교,대전,사립,대전광역시 대덕구 한남로 70,대전광역시 대덕구 오정동 133,36.35279952,127.4233094,1956-03-13
대학,한동대학교,본교,경북,사립,경상북도 포항시 북구 흥해읍 한동로 558,경상북도 포항시 북구 흥해읍 남송리 3,36.10230143,129.3892661,1994-12-02
대학,한라대학교,본교,강원,사립,강원특별자치도 원주시 흥업면 한라대길 28,강원특별자치도 원주시 흥업면 흥업리 산 66,37.30398282,127.9069247,1997-03-01
대학,한림대학교,본교,강원,사립,강원특별자치도 춘천시 한림대학길 1,강원특별자치도 춘천시 옥천동 1-1,37.88542866,127.7349573,1982-03-01
대학,한서대학교,본교,충남,사립,충청남도 서산시 해미면 한서1로 46,충청남도 서산시 해미면 대곡리 8,36.69071573,126.5869649,1991-11-15
대학,한성대학교,본교,서울,사립,서울특별시 성북구 삼선교로16길 116,서울특별시 성북구 삼선동2가 389,37.58323585,127.01039,1972-12-21
대학,한세대학교,본교,경기,사립,경기도 군포시 한세로 30,경기도 군포시 당정동 964-1,37.34414801,126.9538537,1953-05-10
대학,한신대학교,본교,경기,사립,경기도 오산시 한신대길 137,경기도 오산시 양산동 400,37.19243583,127.0282139,1940-04-19
대학,한양대학교,본교,서울,사립,서울특별시 성동구 왕십리로 222,서울특별시 성동구 사근동 110,37.55450355,127.0466112,1948-07-01
대학,한양대학교(ERICA),분교,경기,사립,경기도 안산시 상록구 한양대학로 55,경기도 안산시 상록구 사동 1271,37.29800473,126.8343938,1979-01-10
대학,서울한영대학교,본교,서울,사립,서울특별시 구로구 경인로 290-42,서울특별시 구로구 개봉동 415-9,37.49656611,126.8512505,1996-11-11
대학,한일장신대학교,본교,전북,사립,전북특별자치도 완주군 상관면 왜목로 726-15,전북특별자치도 완주군 상관면 신리 694-1,35.76428301,127.2058605,1995-03-01
대학,협성대학교,본교,경기,사립,경기도 화성시 봉담읍 최루백로 72,경기도 화성시 봉담읍 상리 14,37.21325088,126.953623,1983-03-04
대학,호남대학교,본교,광주,사립,광주광역시 광산구 호남대길 120,광주광역시 광산구 서봉동 61-1,35.14996766,126.7650403,1981-07-31
대학,호남신학대학교,본교,광주,사립,광주광역시 남구 제중로 77,광주광역시 남구 양림동 108,35.14011029,126.9105687,1972-02-16
대학,호서대학교,본교,충남,사립,충청남도 아산시 배방읍 호서로79번길 20,충청남도 아산시 배방읍 세출리 165,36.73446302,127.0771069,1980-12-29
대학,홍익대학교,본교,서울,사립,서울특별시 마포구 와우산로 94,서울특별시 마포구 상수동 72-1,37.55251925,126.9249906,1946-04-25
대학,가톨릭꽃동네대학교,본교,충북,사립,충청북도 청주시 서원구 현도면 상삼길 133,충청북도 청주시 서원구 현도면 상삼리 387,36.52197304,127.4029847,1998-11-30
대학,남부대학교,본교,광주,사립,광주광역시 광산구 남부대길 1,광주광역시 광산구 월계동 864-1,35.20860925,126.8421989,1999-03-12
대학,예원예술대학교,본교,전북,사립,전북특별자치도 임실군 신평면 창인로 117,전북특별자치도 임실군 신평면 창인리 271,35.64776492,127.2714667,2000-03-02
대학,예원예술대학교,제2캠퍼스,경기,사립,경기도 양주시 은현면 예원대학로 56,경기도 양주시 은현면 용암리 784-3,37.84667225,127.0370815,2014-03-01
대학,목포가톨릭대학교,본교,전남,사립,전라남도 목포시 영산로 697,전라남도 목포시 석현동 894-1,34.82678337,126.4189198,1999-12-17
대학,부산장신대학교,본교,경남,사립,경상남도 김해시 김해대로 1894-68,경상남도 김해시 구산동 764,35.25636621,128.8616244,2000-11-29
대학,금강대학교,본교,충남,사립,충청남도 논산시 상월면 상월로 522,충청남도 논산시 상월면 대명리 14-9,36.30682659,127.189714,2002-11-16
대학,예수대학교,본교,전북,사립,전북특별자치도 전주시 완산구 서원로 383,전북특별자치도 전주시 완산구 중화산동1가 168-1,35.81609361,127.1347885,2003-03-01
대학,광주대학교,본교,광주,사립,광주광역시 남구 효덕로 277,광주광역시 남구 진월동 592-1,35.10590365,126.8961699,2004-03-01
대학,화성의과학대학교,본교,경기,사립,경기도 화성시 남양읍 남양중앙로 400-5,경기도 화성시 남양읍 남양리 1479,37.20286541,126.8396281,2004-04-07
대학,동명대학교,본교,부산,사립,부산광역시 남구 신선로 428,부산광역시 남구 용당동 485,35.12468379,129.1013782,2006-03-01
대학,영산대학교,본교,경남,사립,경상남도 양산시 주남로 288,경상남도 양산시 주남동 산 150,35.42835245,129.1446374,2005-12-21
대학,영산대학교,제2캠퍼스,부산,사립,부산광역시 해운대구 반송순환로 142,부산광역시 해운대구 반송동 248,35.22415433,129.1590647,2005-12-21
대학,대전신학대학교,본교,대전,사립,대전광역시 대덕구 한남로 41,대전광역시 대덕구 오정동 226-22,36.35057577,127.4235435,2009-03-01
대학,중원대학교,본교,충북,사립,충청북도 괴산군 괴산읍 문무로 85,충청북도 괴산군 괴산읍 동부리 5,36.81915515,127.7984939,2009-03-02
대학,우송대학교,본교,대전,사립,대전광역시 동구 동대전로 171,대전광역시 동구 자양동 155-3,36.33577184,127.4456424,1995-03-01
대학,김천대학교,본교,경북,사립,경상북도 김천시 대학로 214,경상북도 김천시 삼락동 754-1,36.13940425,128.0818389,2010-03-01
대학,송원대학교,본교,광주,사립,광주광역시 남구 송암로 73,광주광역시 남구 송하동 365-7,35.10818451,126.8732664,2012-03-01
대학,경운대학교,본교,경북,사립,경상북도 구미시 산동읍 강동로 730,경상북도 구미시 산동읍 인덕리 171-3,36.1672258,128.4678766,2012-03-01
대학,남서울대학교,본교,충남,사립,충청남도 천안시 서북구 성환읍 대학로 91,충청남도 천안시 서북구 성환읍 매주리 21,36.91091373,127.1436195,1994-04-14
대학,초당대학교,본교,전남,사립,전라남도 무안군 무안읍 무안로 380,전라남도 무안군 무안읍 성남리 419,34.98004734,126.4702665,1994-03-07
대학,한국공학대학교,본교,경기,사립,경기도 시흥시 산기대학로 237,경기도 시흥시 정왕동 2121-1,37.33973274,126.7335394,1998-03-07
대학,제주국제대학교,본교,제주,사립,제주특별자치도 제주시 516로 2870,제주특별자치도 제주시 영평동 2235,33.44277325,126.5698311,2012-03-01
대학,창신대학교,본교,경남,사립,경상남도 창원시 마산회원구 팔용로 262,경상남도 창원시 마산회원구 합성동 1,35.2446929,128.5995961,2013-03-04
대학,울산과학기술원,본교,울산,특별법법인,울산광역시 울주군 언양읍 유니스트길 50,울산광역시 울주군 언양읍 반연리 100,35.57730714,129.1876189,2009-03-02
대학,공주교육대학교,본교,충남,국립,충청남도 공주시 웅진로 27,충청남도 공주시 봉황동 376-1,36.44520385,127.1196552,1938-04-01
대학,광주교육대학교,본교,광주,국립,광주광역시 북구 필문대로 55,광주광역시 북구 풍향동 1-1,35.16471468,126.9256972,1963-03-01
대학,대구교육대학교,본교,대구,국립,대구광역시 남구 중앙대로 219,대구광역시 남구 대명동 1797-5,35.85143158,128.5877392,1950-03-25
대학,부산교육대학교,본교,부산,국립,부산광역시 연제구 교대로 24,부산광역시 연제구 거제동 87-2,35.19569321,129.0770825,1946-09-02
대학,서울교육대학교,본교,서울,국립,서울특별시 서초구 서초중앙로 96,서울특별시 서초구 서초동 1650,37.49074049,127.0154245,1946-05-22
대학,경인교육대학교,본교,인천,국립,인천광역시 계양구 계산로 62,인천광역시 계양구 계산동 857-87,37.53574319,126.7172307,1962-02-17
대학,경인교육대학교,제2캠퍼스,경기,국립,경기도 안양시 만안구 삼막로 155,경기도 안양시 만안구 석수동 6-8,37.4356067,126.9170683,2005-03-01
대학,전주교육대학교,본교,전북,국립,전북특별자치도 전주시 완산구 서학로 50,전북특별자치도 전주시 완산구 동서학동 128,35.80916406,127.1538039,1963-03-01
대학,진주교육대학교,본교,경남,국립,경상남도 진주시 진양호로369번길 3,경상남도 진주시 신안동 380,35.18582508,128.0679685,1963-01-01
대학,청주교육대학교,본교,충북,국립,충청북도 청주시 서원구 청남로 2065,충청북도 청주시 서원구 수곡동 135-1,36.6154292,127.4840095,1962-02-17
대학,춘천교육대학교,본교,강원,국립,강원특별자치도 춘천시 공지로 126,강원특별자치도 춘천시 석사동 339,37.85941732,127.7486049,1939-04-01
대학,한밭대학교(산업대),본교,대전,국립,대전광역시 유성구 동서대로 125,대전광역시 유성구 덕명동 16-1,36.34526854,127.3052522,1927-05-20
대학,한경대학교(산업대),본교,경기,국립,경기도 안성시 중앙로 327,경기도 안성시 석정동 55,37.01020238,127.2637664,1993-03-01
대학,진주산업대학교(산업대),본교,경남,국립,경상남도 진주시 동진로 33,경상남도 진주시 칠암동 150-1,35.17926588,128.0920809,1910-04-30
대학,한국산업기술대학교(산업대),본교,경기,사립,경기도 시흥시 산기대학로 237,경기도 시흥시 정왕동 2121-1,37.33973274,126.7335394,1998-03-07
대학,한국방송통신대학교,본교,서울,국립,서울특별시 종로구 대학로 86,서울특별시 종로구 동숭동 169-1,37.57919549,127.0032909,1972-03-09
대학,남서울대학교(산업대),본교,충남,사립,충청남도 천안시 서북구 성환읍 대학로 91,충청남도 천안시 서북구 성환읍 매주리 21,36.91091373,127.1436195,1994-04-14
대학,우송대학교(산업대),본교,대전,사립,대전광역시 동구 동대전로 171,대전광역시 동구 자양동 155-3,36.33577184,127.4456424,1995-03-01
대학,호원대학교,본교,전북,사립,전북특별자치도 군산시 임피면 호원대3길 64,전북특별자치도 군산시 임피면 월하리 727,35.96792618,126.8637877,1978-03-02
대학,초당대학교(산업대),본교,전남,사립,전라남도 무안군 무안읍 무안로 380,전라남도 무안군 무안읍 성남리 419,34.98004734,126.4702665,1994-03-07
대학,청운대학교,본교,충남,사립,충청남도 홍성군 홍성읍 대학길 25,충청남도 홍성군 홍성읍 남장리 392-1,36.58236512,126.6645184,1994-12-03
대학,경운대학교(산업대),본교,경북,사립,경상북도 구미시 산동읍 강동로 730,경상북도 구미시 산동읍 인덕리 171-3,36.1672258,128.4678766,1997-03-01
대학,정석대학,본교,서울,사립,서울특별시 강서구 오정로 576,서울특별시 강서구 공항동 369-2,37.54620817,126.8138841,2000-03-01
대학,순복음총회신학교,본교,충북,사립,충청북도 제천시 덕산면 도전로 320,충청북도 제천시 덕산면 도전리 486,36.90424239,128.1678519,2010-03-08
대학,경희사이버대학교,본교,서울,사립,서울특별시 동대문구 경희대로 26,서울특별시 동대문구 회기동 1-5,37.59394914,127.054891,2001-03-03
대학,국제사이버대학교,본교,경기,사립,경기도 수원시 팔달구 경수대로 490,경기도 수원시 팔달구 인계동 950-12,37.26959375,127.0282232,2003-03-01
대학,대구사이버대학교,본교,경북,사립,경상북도 경산시 진량읍 대구대로 201,경상북도 경산시 진량읍 내리리 15,35.90453897,128.8428133,2001-11-10
대학,부산디지털대학교,본교,부산,사립,부산광역시 사상구 주례로 57,부산광역시 사상구 주례동 166-220,35.14667728,129.0097084,2001-11-01
대학,서울디지털대학교,본교,서울,사립,서울특별시 강서구 공항대로 424,서울특별시 강서구 화곡동 1107-2,37.5550005,126.8540201,2001-03-01
대학,서울사이버대학교,본교,서울,사립,서울특별시 강북구 솔매로49길 60,서울특별시 강북구 미아동 193-15,37.62984392,127.0271231,2000-11-30
대학,세종사이버대학교,본교,서울,사립,서울특별시 광진구 군자로 121,서울특별시 광진구 군자동 98,37.55372747,127.0728868,2001-03-01
대학,한국열린사이버대학교,본교,서울,사립,서울특별시 중랑구 망우로 353,서울특별시 중랑구 상봉동 500,37.59833282,127.0916241,2001-03-01
대학,원광디지털대학교,본교,전북,사립,전북특별자치도 익산시 익산대로 460,전북특별자치도 익산시 신동 272,35.97171397,126.9602237,2002-03-01
대학,고려사이버대학교,본교,서울,사립,서울특별시 종로구 북촌로 106,서울특별시 종로구 계동 1-21,37.58694427,126.987063,2001-02-20
대학,숭실사이버대학교,본교,서울,사립,서울특별시 종로구 삼일대로30길 23,서울특별시 종로구 익선동 34,37.5744755,126.9887758,2000-11-30
대학,디지털서울문화예술대학교,본교,서울,사립,서울특별시 서대문구 통일로37길 60,서울특별시 서대문구 홍제동 318-18,37.58544374,126.9438792,2010-03-01
대학,한양사이버대학교,본교,서울,사립,서울특별시 성동구 왕십리로 220,서울특별시 성동구 행당동 17,37.55718636,127.047519,2002-03-01
대학,사이버한국외국어대학교,본교,서울,사립,서울특별시 동대문구 이문로 107,서울특별시 동대문구 이문동 270-1,37.59829668,127.0579424,2004-03-01
대학,화신사이버대학교,본교,부산,사립,부산광역시 연제구 고분로191번길 1,부산광역시 연제구 연산동 411-2,35.18574618,129.1032576,2009-03-01
대학,글로벌사이버대학교,본교,충남,사립,충청남도 천안시 동남구 목천읍 교천지산길 284-88,충청남도 천안시 동남구 목천읍 지산리 189-4,36.79388746,127.1994105,2010-03-01
대학,건양사이버대학교,본교,대전,사립,대전광역시 서구 관저동로 158,대전광역시 서구 관저동 1643,36.30778182,127.3426468,2012-03-01
대학,한국과학기술원,본교,대전,특별법법인,대전광역시 유성구 대학로 291,대전광역시 유성구 구성동 23,36.36828278,127.3569819,1971-02-16
대학,광주과학기술원,본교,광주,특별법법인,광주광역시 북구 첨단과기로 123,광주광역시 북구 오룡동 1,35.22687915,126.8429479,1993-11-17
대학,대구경북과학기술원,본교,대구,특별법법인,대구광역시 달성군 현풍읍 테크노중앙대로 333,대구광역시 달성군 현풍읍 상리 953,35.70563874,128.455011,2011-03-02
대학,한국예술종합학교,본교,서울,특별법국립,서울특별시 성북구 화랑로32길 146-37,서울특별시 성북구 석관동 409,37.60635811,127.0539408,1992-10-30
전문대학,경남도립거창대학,본교,경남,공립,경상남도 거창군 거창읍 거창대학로 72,경상남도 거창군 거창읍 대평리 1396,35.67320256,127.9124187,1996-03-01
전문대학,경남도립남해대학,본교,경남,공립,경상남도 남해군 남해읍 화전로78번길 30,경상남도 남해군 남해읍 남변리 195,34.83699602,127.8984701,1996-03-07
전문대학,경북도립대학교,본교,경북,공립,경상북도 예천군 예천읍 도립대학길 114,경상북도 예천군 예천읍 청복리 927,36.64372901,128.4546378,1996-12-26
전문대학,충북도립대학교,본교,충북,공립,충청북도 옥천군 옥천읍 대학길 15,충청북도 옥천군 옥천읍 문정리 480-1,36.29999918,127.5721386,1998-03-06
전문대학,가톨릭상지대학교,본교,경북,사립,경상북도 안동시 상지길 45,경상북도 안동시 율세동 393-2,36.56939202,128.7371117,1970-03-10
전문대학,거제대학교,본교,경남,사립,경상남도 거제시 마전1길 91,경상남도 거제시 장승포동 654-1,34.84943973,128.7275934,1989-12-01
전문대학,호산대학교,본교,경북,사립,경상북도 경산시 하양읍 대경로105길 19,경상북도 경산시 하양읍 부호리 224-1,35.90198632,128.7987951,1992-03-09
전문대학,경민대학교,본교,경기,사립,경기도 의정부시 서부로 545,경기도 의정부시 가능동 562-1,37.74612458,127.0251316,1992-03-02
전문대학,영남외국어대학,본교,경북,사립,경상북도 경산시 남천면 남천로 780-9,경상북도 경산시 남천면 협석리 220-1,35.7851049,128.7328729,1995-03-01
전문대학,경인여자대학교,본교,인천,사립,인천광역시 계양구 계양산로 63,인천광역시 계양구 계산동 548-4,37.5483198,126.723526,1992-03-02
전문대학,계명문화대학교,본교,대구,사립,대구광역시 달서구 달서대로 675,대구광역시 달서구 신당동 700,35.85946203,128.4863418,1962-02-27
전문대학,계원예술대학교,본교,경기,사립,경기도 의왕시 계원대학로 66,경기도 의왕시 내손동 768,37.37947065,126.9818215,1993-03-01
전문대학,광양보건대학교,본교,전남,사립,전라남도 광양시 광양읍 대학로 85,전라남도 광양시 광양읍 덕례리 654-1,34.95324129,127.5688134,1994-03-15
전문대학,광주보건대학교,본교,광주,사립,광주광역시 광산구 북문대로419번길 73,광주광역시 광산구 신창동 683-3,35.19169546,126.8461886,1971-12-23
전문대학,구미대학교,본교,경북,사립,경상북도 구미시 야은로 37,경상북도 구미시 부곡동 407,36.15216623,128.2890883,1991-11-30
전문대학,군장대학교,본교,전북,사립,전북특별자치도 군산시 성산면 군장대길 13,전북특별자치도 군산시 성산면 도암리 608-8,36.00197655,126.7849803,1994-03-09
전문대학,강동대학교,본교,충북,사립,충청북도 음성군 감곡면 대학길 278,충청북도 음성군 감곡면 단평리 154-1,37.14356386,127.6473747,1994-03-05
전문대학,나주대학교,본교,전남,사립,전라남도 나주시 다시면 백호로 125,전라남도 나주시 다시면 복암리 837-8,35.00824677,126.649143,1995-01-25
전문대학,전주기전대학,본교,전북,사립,전북특별자치도 전주시 완산구 전주천서로 267,전북특별자치도 전주시 완산구 중화산동1가 176-1,35.81783331,127.1356698,1974-03-21
전문대학,경북보건대학교,본교,경북,사립,경상북도 김천시 대학로 168,경상북도 김천시 삼락동 480,36.13820946,128.0837653,1956-04-12
전문대학,김포대학교,본교,경기,사립,경기도 김포시 모담공원로 10,경기도 김포시 운양동 1329-9,37.65137946,126.6792129,1996-03-01
전문대학,농협대학교,본교,경기,사립,경기도 고양시 덕양구 서삼릉길 281,경기도 고양시 덕양구 원당동 198-201,37.6595131,126.8732287,1962-12-28
전문대학,대경대학교,본교,경북,사립,경상북도 경산시 자인면 단북1길 65,경상북도 경산시 자인면 단북리 63,35.83445176,128.821047,1992-05-22
전문대학,대구공업대학교,본교,대구,사립,대구광역시 달서구 송현로 205,대구광역시 달서구 본동 831,35.83408184,128.5443283,1976-03-20
전문대학,대구보건대학교,본교,대구,사립,대구광역시 북구 영송로 15,대구광역시 북구 태전동 산 6-6,35.92684451,128.5440277,1971-12-23
전문대학,대구과학대학교,본교,대구,사립,대구광역시 북구 영송로 47,대구광역시 북구 태전동 산 9-1,35.92925359,128.5427833,1960-05-09
전문대학,대동대학교,본교,부산,사립,부산광역시 금정구 동부곡로27번길 88,부산광역시 금정구 부곡동 373-4,35.22913251,129.0958647,1971-03-06
전문대학,대림대학교,본교,경기,사립,경기도 안양시 동안구 임곡로 29,경기도 안양시 동안구 비산동 526-7,37.40329135,126.9306842,1977-06-24
전문대학,대원대학교,본교,충북,사립,충청북도 제천시 대학로 316,충청북도 제천시 신월동 599,37.1757963,128.1905289,1995-03-01
전문대학,동서울대학교,본교,경기,사립,경기도 성남시 수정구 복정로 76,경기도 성남시 수정구 복정동 산 42,37.45828544,127.1288444,1978-03-15
전문대학,대전보건대학교,본교,대전,사립,대전광역시 동구 충정로 21,대전광역시 동구 가양동 77-3,36.35050616,127.4559042,1977-12-03
전문대학,우송정보대학,본교,대전,사립,대전광역시 동구 백룡로 59,대전광역시 동구 자양동 17-2,36.33702928,127.4535859,1963-03-01
전문대학,대전과학기술대학교,본교,대전,사립,대전광역시 서구 혜천로 100,대전광역시 서구 복수동 333,36.30178686,127.3757667,1940-04-15
전문대학,아주자동차대학교,본교,충남,사립,충청남도 보령시 주포면 대학길 106,충청남도 보령시 주포면 관산리 290-1,36.40350777,126.5795708,1994-11-17
전문대학,재능대학교,본교,인천,사립,인천광역시 동구 재능로 178,인천광역시 동구 송림동 122-1,37.47553313,126.6504734,1970-12-16
전문대학,경북과학대학교,본교,경북,사립,경상북도 칠곡군 기산면 지산로 634,경상북도 칠곡군 기산면 봉산리 123,35.98318752,128.345669,1993-03-15
전문대학,동남보건대학교,본교,경기,사립,경기도 수원시 장안구 천천로74번길 50,경기도 수원시 장안구 정자동 937,37.29693844,126.9870001,1973-10-18
전문대학,동강대학교,본교,광주,사립,광주광역시 북구 동문대로 50,광주광역시 북구 두암동 887-2,35.16943786,126.9223461,1976-01-24
전문대학,동아방송예술대학교,본교,경기,사립,경기도 안성시 삼죽면 동아예대길 47,경기도 안성시 삼죽면 진촌리 632-18,37.06236123,127.3532946,1996-12-26
전문대학,동아보건대학교,본교,전남,사립,전라남도 영암군 학산면 영산로 76-57,전라남도 영암군 학산면 독천리 산 22-1,34.73035573,126.5674321,1994-03-11
전문대학,동양미래대학교,본교,서울,사립,서울특별시 구로구 경인로 445,서울특별시 구로구 고척동 62-160,37.49999579,126.8681697,1965-04-21
전문대학,동원대학교,본교,경기,사립,경기도 광주시 곤지암읍 경충대로 26,경기도 광주시 곤지암읍 신촌리 산 1-1,37.32807999,127.4014405,1995-12-27
전문대학,동의과학대학교,본교,부산,사립,부산광역시 부산진구 양지로 54,부산광역시 부산진구 양정동 429-19,35.16584983,129.0722266,1972-12-14
전문대학,부산보건대학교,본교,부산,사립,부산광역시 사하구 사리로55번길 16,부산광역시 사하구 괴정동 산 15-1,35.10672357,128.9972309,1978-02-16
전문대학,두원공과대학교,본교,경기,사립,경기도 안성시 죽산면 관음당길 51,경기도 안성시 죽산면 장원리 871,37.06491885,127.424096,1994-03-01
전문대학,마산대학교,본교,경남,사립,경상남도 창원시 마산회원구 내서읍 함마대로 2640,경상남도 창원시 마산회원구 내서읍 용담리 181-1,35.25987313,128.5036938,1956-05-30
전문대학,명지전문대학,본교,서울,사립,서울특별시 서대문구 가좌로 134,서울특별시 서대문구 홍은동 356-1,37.5853653,126.9256899,1974-03-09
전문대학,목포과학대학교,본교,전남,사립,전라남도 목포시 영산로 413-1,전라남도 목포시 상동 525,34.80787958,126.4098144,1976-03-10
전문대학,문경대학교,본교,경북,사립,경상북도 문경시 호계면 대학길 161,경상북도 문경시 호계면 별암리 산 6,36.65756234,128.1741778,1995-12-27
전문대학,배화여자대학교,본교,서울,사립,서울특별시 종로구 필운대로1길 34,서울특별시 종로구 필운동 12,37.57954401,126.9672919,1978-03-02
전문대학,백제예술대학교,본교,전북,사립,전북특별자치도 완주군 봉동읍 백제대학로 171,전북특별자치도 완주군 봉동읍 제내리 1234,35.99625394,127.1298483,1991-11-30
전문대학,부산경상대학교,본교,부산,사립,부산광역시 연제구 고분로 170,부산광역시 연제구 연산동 277-4,35.18542933,129.1009589,1979-11-15
전문대학,부산여자대학교,본교,부산,사립,부산광역시 부산진구 진남로 506,부산광역시 부산진구 양정동 74-161,35.16923652,129.0720552,1979-01-01
전문대학,부산과학기술대학교,본교,부산,사립,부산광역시 북구 시랑로132번길 88,부산광역시 북구 구포동 870,35.19419451,129.0053031,1976-12-31
전문대학,부천대학교,본교,경기,사립,경기도 부천시 원미구 신흥로56번길 25,경기도 부천시 원미구 심곡동 424,37.48887272,126.7792998,1979-03-08
전문대학,삼육보건대학교,본교,서울,사립,서울특별시 동대문구 망우로 82,서울특별시 동대문구 휘경동 29-1,37.58621194,127.0635533,1936-04-01
전문대학,상지영서대학교,본교,강원,사립,강원특별자치도 원주시 상지대길 83,강원특별자치도 원주시 우산동 660,37.36911929,127.9299151,1973-03-10
전문대학,서울예술대학교,본교,경기,사립,경기도 안산시 단원구 예술대학로 171,경기도 안산시 단원구 고잔동 640,37.33341409,126.8362748,1962-04-12
전문대학,서일대학교,본교,서울,사립,서울특별시 중랑구 용마산로90길 28,서울특별시 중랑구 면목동 49-3,37.5860828,127.0972033,1974-12-21
전문대학,성심외국어대학,본교,부산,사립,부산광역시 해운대구 반송순환로 142,부산광역시 해운대구 반송동 248,35.22415433,129.1590647,1982-12-10
전문대학,수원여자대학교,본교,경기,사립,경기도 수원시 권선구 온정로 72,경기도 수원시 권선구 오목천동 산 1-6,37.25270544,126.9633073,1969-03-01
전문대학,수원과학대학교,본교,경기,사립,경기도 화성시 정남면 세자로 288,경기도 화성시 정남면 보통리 141-44,37.19203289,126.9839265,1978-03-01
전문대학,순천제일대학교,본교,전남,사립,전라남도 순천시 제일대학길 17,전라남도 순천시 덕월동 535,34.93379696,127.4851975,1979-03-01
전문대학,숭의여자대학교,본교,서울,사립,서울특별시 중구 소파로2길 10,서울특별시 중구 예장동 8-3,37.55785307,126.9874816,1903-10-31
전문대학,신구대학교,본교,경기,사립,경기도 성남시 중원구 광명로 377,경기도 성남시 중원구 금광동 2685,37.44885139,127.1676966,1973-12-19
전문대학,신성대학교,본교,충남,사립,충청남도 당진시 정미면 대학로 1,충청남도 당진시 정미면 덕마리 220,36.85370948,126.5937687,1995-03-01
전문대학,신안산대학교,본교,경기,사립,경기도 안산시 단원구 신안산대학로 135,경기도 안산시 단원구 초지동 671,37.30901679,126.8054165,1994-04-30
전문대학,안산대학교,본교,경기,사립,경기도 안산시 상록구 안산대학로 155,경기도 안산시 상록구 일동 752,37.30817183,126.8771195,1973-03-01
전문대학,동원과학기술대학교,본교,경남,사립,경상남도 양산시 명곡로 321,경상남도 양산시 명곡동 832,35.34235741,129.0673552,1991-03-18
전문대학,여주대학교,본교,경기,사립,경기도 여주시 338,경기도 여주시 교동 454-4,37.27109289,127.6363531,1993-03-01
전문대학,연암대학교,본교,충남,사립,충청남도 천안시 서북구 성환읍 연암로 313,충청남도 천안시 서북구 성환읍 수향리 72-3,36.94691089,127.1557403,1977-01-19
전문대학,영남이공대학교,본교,대구,사립,대구광역시 남구 현충로 170,대구광역시 남구 대명동 317-1,35.84767574,128.5841726,1968-02-15
전문대학,강릉영동대학교,본교,강원,사립,강원특별자치도 강릉시 공제로 357,강원특별자치도 강릉시 홍제동 1009,37.74741752,128.8549579,1983-06-01
전문대학,세경대학교,본교,강원,사립,강원특별자치도 영월군 영월읍 하송로 197,강원특별자치도 영월군 영월읍 하송리 산 55,37.17280062,128.4542814,1993-11-18
전문대학,영진전문대학교,본교,대구,사립,대구광역시 북구 복현로 35,대구광역시 북구 복현동 218,35.8956531,128.6206226,1977-03-12
전문대학,용인예술과학대학교,본교,경기,사립,경기도 용인시 처인구 동부로 61,경기도 용인시 처인구 마평동 961,37.22855877,127.2176837,1994-11-17
전문대학,울산과학대학교,본교,울산,사립,울산광역시 동구 봉수로 101,울산광역시 동구 화정동 산 160-1,35.49480076,129.4157377,1972-12-14
전문대학,한국영상대학교,본교,세종,사립,세종특별자치시 장군면 대학길 300,세종특별자치시 장군면 금암리 180-1,36.46241109,127.2097438,1992-12-11
전문대학,원광보건대학교,본교,전북,사립,전북특별자치도 익산시 익산대로 514,전북특별자치도 익산시 신용동 345-13,35.97274646,126.9561957,1976-01-24
전문대학,유한대학교,본교,경기,사립,경기도 부천시 소사구 경인로 590,경기도 부천시 소사구 괴안동 185-34,37.48812991,126.8223663,1978-03-18
전문대학,인덕대학교,본교,서울,사립,서울특별시 노원구 초안산로 12,서울특별시 노원구 월계동 648,37.63034387,127.0544999,1971-12-23
전문대학,장안대학교,본교,경기,사립,경기도 화성시 봉담읍 삼천병마로 1182,경기도 화성시 봉담읍 상리 460,37.21328732,126.9444821,1979-03-10
전문대학,전남과학대학교,본교,전남,사립,전라남도 곡성군 옥과면 대학로 113,전라남도 곡성군 옥과면 옥과리 285,35.27743703,127.1328147,1990-12-19
전문대학,전주비전대학교,본교,전북,사립,전북특별자치도 전주시 완산구 천잠로 235,전북특별자치도 전주시 완산구 효자동2가 1070,35.81087689,127.0909663,1976-01-24
전문대학,전북과학대학교,본교,전북,사립,전북특별자치도 정읍시 정읍사로 509,전북특별자치도 정읍시 시기동 산 9-28,35.54804131,126.8613577,1994-11-17
전문대학,제주관광대학교,본교,제주,사립,제주특별자치도 제주시 애월읍 평화로 2715,제주특별자치도 제주시 애월읍 광령리 2535,33.44748023,126.4343028,1992-12-11
전문대학,조선이공대학교,본교,광주,사립,광주광역시 동구 조선이공대길 11,광주광역시 동구 서석동 290,35.13981731,126.9316922,1963-01-28
전문대학,충북보건과학대학교,본교,충북,사립,충청북도 청주시 청원구 내수읍 덕암길 10,충청북도 청주시 청원구 내수읍 덕암리 산 4,36.70350037,127.5533575,1992-03-12
전문대학,진주보건대학교,본교,경남,사립,경상남도 진주시 의병로 51,경상남도 진주시 상봉동 1142,35.19805829,128.0666581,1971-12-23
전문대학,창신대학,본교,경남,사립,경상남도 창원시 마산회원구 팔용로 262,경상남도 창원시 마산회원구 합성동 1,35.2446929,128.5995961,1991-03-07
전문대학,창원문성대학교,본교,경남,사립,경상남도 창원시 성산구 충혼로 91,경상남도 창원시 성산구 두대동 산 66-2,35.23490377,128.6617147,1978-12-28
전문대학,백석문화대학교,본교,충남,사립,충청남도 천안시 동남구 백석대학로 1,충청남도 천안시 동남구 안서동 393,36.83883721,127.1825206,1994-03-01
전문대학,청강문화산업대학교,본교,경기,사립,경기도 이천시 마장면 청강가창로 389-94,경기도 이천시 마장면 해월리 33,37.20645349,127.3564962,1996-03-08
전문대학,춘해보건대학교,본교,울산,사립,울산광역시 울주군 웅촌면 대학길 9,울산광역시 울주군 웅촌면 곡천리 713,35.45833286,129.1959329,1968-03-16
전문대학,대덕대학교,본교,대전,사립,대전광역시 유성구 가정북로 68,대전광역시 유성구 장동 48,36.39084412,127.367451,1980-12-11
전문대학,충청대학교,본교,충북,사립,충청북도 청주시 흥덕구 강내면 월곡길 38,충청북도 청주시 흥덕구 강내면 월곡리 301-3,36.61873087,127.3698162,1982-12-10
전문대학,강원관광대학교,본교,강원,사립,강원특별자치도 태백시 대학길 97,강원특별자치도 태백시 황지동 439,37.16218429,128.9732848,1994-11-17
전문대학,국제대학교,본교,경기,사립,경기도 평택시 장안웃길 56,경기도 평택시 장안동 353,37.06551111,127.0802911,1997-03-01
전문대학,선린대학교,본교,경북,사립,경상북도 포항시 북구 흥해읍 초곡길36번길 30,경상북도 포항시 북구 흥해읍 초곡리 146-1,36.09078366,129.3331555,1969-03-20
전문대학,한림성심대학교,본교,강원,사립,강원특별자치도 춘천시 동면 장학길 48,강원특별자치도 춘천시 동면 장학리 790,37.89777613,127.7567268,1939-04-01
전문대학,한양여자대학교,본교,서울,사립,서울특별시 성동구 살곶이길 200,서울특별시 성동구 사근동 110,37.55791759,127.0493219,1974-12-20
전문대학,한영대학교,본교,전남,사립,전라남도 여수시 장군산길 18-43,전라남도 여수시 여서동 61,34.75371344,127.714897,1992-12-11
전문대학,혜전대학교,본교,충남,사립,충청남도 홍성군 홍성읍 대학1길 19,충청남도 홍성군 홍성읍 남장리 392-1,36.5797705,126.6591958,1981-12-10
전문대학,경기과학기술대학교,본교,경기,사립,경기도 시흥시 경기과기대로 269,경기도 시흥시 정왕동 2121-3,37.33881386,126.7364292,1998-11-28
전문대학,부산예술대학교,본교,부산,사립,부산광역시 남구 못골번영로71번길 74,부산광역시 남구 대연동 1552,35.14183952,129.0839126,1993-11-18
전문대학,전남도립대학교,본교,전남,공립,전라남도 담양군 담양읍 죽녹원로 152,전라남도 담양군 담양읍 향교리 53,35.32652548,126.9925943,1998-03-13
전문대학,송호대학교,본교,강원,사립,강원특별자치도 횡성군 횡성읍 남산로 210,강원특별자치도 횡성군 횡성읍 남산리 67,37.47348814,128.0022338,1999-12-20
전문대학,한국관광대학교,본교,경기,사립,경기도 이천시 신둔면 이장로311번길 197-73,경기도 이천시 신둔면 고척리 363-10,37.28352147,127.3779241,2001-01-22
전문대학,서정대학교,본교,경기,사립,경기도 양주시 은현면 서정로 27,경기도 양주시 은현면 용암리 681-1,37.85646582,127.0378035,2002-11-19
전문대학,송곡대학교,본교,강원,사립,강원특별자치도 춘천시 남산면 송곡대학길 34,강원특별자치도 춘천시 남산면 창촌리 1,37.79204476,127.6493918,2002-11-19
전문대학,웅지세무대학교,본교,경기,사립,경기도 파주시 탄현면 웅지로144번길 73,경기도 파주시 탄현면 금승리 536-2,37.81875478,126.7357045,2004-03-01
전문대학,김해대학교,본교,경남,사립,경상남도 김해시 삼안로112번길 198,경상남도 김해시 삼방동 산 77-9,35.25414006,128.913047,2004-12-01
전문대학,한국승강기대학교,본교,경남,사립,경상남도 거창군 거창읍 운정1길 120,경상남도 거창군 거창읍 송정리 700,35.67570975,127.8959636,2010-03-01
전문대학,영진사이버대학교,본교,대구,사립,대구광역시 북구 복현로 35,대구광역시 북구 복현동 218,35.8956531,128.6206226,2002-03-01
전문대학,한국복지사이버대학교,본교,경북,사립,경상북도 경산시 남천면 남천로 746-10,경상북도 경산시 남천면 협석리 140,35.78480317,128.729308,2010-09-09
전문대학,한국골프과학기술대학교,본교,강원,사립,강원특별자치도 횡성군 우천면 하대5길 109,강원특별자치도 횡성군 우천면 하대리 281-1,37.46715369,128.0766756,2011-03-01
전문대학,ICT폴리텍대학,본교,경기,사립,경기도 광주시 순암로 16-26,경기도 광주시 역동 181-3,37.39736081,127.2482712,2002-12-10
전문대학,한국폴리텍 I 대학 서울정수캠퍼스,본교,서울,사립,서울특별시 용산구 보광로 73,서울특별시 용산구 보광동 238-2,37.52997497,126.996817,1973-02-09
전문대학,한국폴리텍 I 대학 서울강서캠퍼스,본교,서울,사립,서울특별시 강서구 우장산로10길 112,서울특별시 강서구 화곡동 산 60-1,37.54924248,126.8424451,1998-03-27
전문대학,한국폴리텍 I 대학 성남캠퍼스,본교,경기,사립,경기도 성남시 수정구 수정로 398,경기도 성남시 수정구 산성동 4,37.45887795,127.1539911,1976-12-01
전문대학,한국폴리텍 II 대학 인천캠퍼스,본교,인천,사립,인천광역시 부평구 무네미로448번길 56,인천광역시 부평구 구산동 39-1,37.47913854,126.7542073,1994-03-01
전문대학,한국폴리텍 II 대학 남인천캠퍼스,본교,인천,사립,인천광역시 미추홀구 염전로333번길 23,인천광역시 미추홀구 주안동 1389-2,37.47264801,126.6773336,2007-03-01
전문대학,한국폴리텍 III 대학 춘천캠퍼스,본교,강원,사립,강원특별자치도 춘천시 동산면 영서로 1290-31,강원특별자치도 춘천시 동산면 원창리 70,37.79931149,127.7774724,1973-10-11
전문대학,한국폴리텍 III 대학 강릉캠퍼스,본교,강원,사립,강원특별자치도 강릉시 남산초교길 121,강원특별자치도 강릉시 노암동 779,37.73682855,128.8904157,2008-03-02
전문대학,한국폴리텍 IV 대학 대전캠퍼스,본교,대전,사립,대전광역시 동구 우암로 352-21,대전광역시 동구 가양동 91-2,36.3510399,127.4537574,2006-05-19
전문대학,한국폴리텍 IV 대학 청주캠퍼스,본교,충북,사립,충청북도 청주시 흥덕구 산단로 54,충청북도 청주시 흥덕구 송정동 47,36.6395868,127.4483782,1977-05-06
전문대학,한국폴리텍 IV 대학 아산캠퍼스,본교,충남,사립,충청남도 아산시 신창면 행목로 45,충청남도 아산시 신창면 행목리 323,36.77205091,126.9488454,2002-03-02
전문대학,한국폴리텍 IV 대학 충남캠퍼스,본교,충남,사립,충청남도 홍성군 홍성읍 충서로 1200,충청남도 홍성군 홍성읍 남장리 221-1,36.58261959,126.6561652,2006-05-19
전문대학,한국폴리텍 V 대학 광주캠퍼스,본교,광주,사립,광주광역시 북구 하서로 85,광주광역시 북구 운암동 250-17,35.18295614,126.8786718,1994-07-01
전문대학,한국폴리텍 V 대학 전북캠퍼스,본교,전북,사립,전북특별자치도 김제시 백학제길 154,전북특별자치도 김제시 백학동 84,35.80948702,126.9397888,1995-03-02
전문대학,한국폴리텍 V 대학 전남캠퍼스,본교,전남,사립,전라남도 무안군 청계면 영산로 1854-16,전라남도 무안군 청계면 상마리 14-1,34.92352639,126.428917,1996-03-01
전문대학,한국폴리텍 V 대학 익산캠퍼스,본교,전북,사립,전북특별자치도 익산시 선화로 579,전북특별자치도 익산시 어양동 16,35.95200188,126.9905866,2008-03-02
전문대학,한국폴리텍 VI 대학 대구캠퍼스,본교,대구,사립,대구광역시 서구 국채보상로43길 15,대구광역시 서구 평리동 1495,35.87408784,128.5530232,1973-01-01
전문대학,한국폴리텍 VI 대학 구미캠퍼스,본교,경북,사립,경상북도 구미시 수출대로3길 84,경상북도 구미시 공단동 114,36.11927672,128.373736,1977-05-06
전문대학,한국폴리텍 VII 대학 창원캠퍼스,본교,경남,사립,경상남도 창원시 성산구 외동반림로 51-88,경상남도 창원시 성산구 중앙동 110,35.22571157,128.6693024,1977-11-19
전문대학,한국폴리텍 VII 대학 부산캠퍼스,본교,부산,사립,부산광역시 북구 만덕대로155번길 99,부산광역시 북구 덕천동 22,35.21847737,129.0189807,1978-04-10
전문대학,한국폴리텍 VII 대학 울산캠퍼스,본교,울산,사립,울산광역시 중구 산전길 155,울산광역시 중구 동동 81,35.57853069,129.3480368,2000-01-01
전문대학,한국폴리텍 특성화대학 바이오캠퍼스,본교,충남,사립,충청남도 논산시 강경읍 동안로112번길 48,충청남도 논산시 강경읍 채운리 315-1,36.14599596,127.0215588,2006-03-01
전문대학,한국폴리텍 VI 대학 영남융합기술캠퍼스,본교,대구,사립,대구광역시 동구 팔공로 222,대구광역시 동구 봉무동 1558,35.92024304,128.6420149,1998-02-05
전문대학,한국폴리텍 특성화대학 반도체융합캠퍼스,본교,경기,사립,경기도 안성시 공도읍 송원길 41-12,경기도 안성시 공도읍 만정리 349-6,37.00852935,127.1762713,1996-10-25
전문대학,한국폴리텍 특성화대학 항공캠퍼스,본교,경남,사립,경상남도 사천시 대학길 46,경상남도 사천시 이금동 438,34.94784952,128.1079869,2000-11-30
대학원대학,한국개발연구원국제정책대학원대학교,본교,세종,사립,세종특별자치시 남세종로 263,세종특별자치시 반곡동 1041,36.48116763,127.3087991,1997-12-05
대학원대학,대한신학대학원대학교,본교,경기,사립,경기도 안양시 만안구 경수대로1406번길 30,경기도 안양시 만안구 석수동 381-1,37.43220959,126.9054102,1998-03-02
대학원대학,베뢰아국제대학원대학교,본교,서울,사립,서울특별시 영등포구 가마산로 359,서울특별시 영등포구 대림동 665-10,37.50091644,126.8982488,1998-03-01
대학원대학,건신대학원대학교,본교,대전,사립,대전광역시 중구 동서대로1327번길 40,대전광역시 중구 용두동 128-1,36.33090412,127.4058785,1998-03-12
대학원대학,성산효대학원대학교,본교,인천,사립,인천광역시 남동구 석정로 543,인천광역시 남동구 간석동 614-6,37.46639445,126.6960104,1997-12-05
대학원대학,원불교대학원대학교,본교,전북,사립,전북특별자치도 익산시 익산대로33길 23,전북특별자치도 익산시 신용동 320-1,35.97530229,126.951967,1997-09-11
대학원대학,웨스트민스터신학대학원대학교,본교,경기,사립,경기도 용인시 기흥구 동백죽전대로 201-11,경기도 용인시 기흥구 중동 38-1,37.25900356,127.1580714,1997-09-11
대학원대학,합동신학대학원대학교,본교,경기,사립,경기도 수원시 영통구 광교중앙로 50,경기도 수원시 영통구 원천동 산 42-3,37.2801724,127.0537778,1996-12-11
대학원대학,횃불트리니티신학대학원대학교,본교,서울,사립,서울특별시 서초구 바우뫼로31길 70,서울특별시 서초구 양재동 55,37.47938619,127.0347749,1997-12-05
대학원대학,수도국제대학원대학교,본교,서울,사립,서울특별시 관악구 남부순환로 1548,서울특별시 관악구 신림동 1577-5,37.4829986,126.9226628,1999-03-09
대학원대학,서울성경신학대학원대학교,본교,서울,사립,서울특별시 동작구 신대방14가길 45-1,서울특별시 동작구 신대방동 632-57,37.49031064,126.9136874,1999-02-22
대학원대학,예명대학원대학교,본교,서울,사립,서울특별시 서초구 남부순환로337가길 49,서울특별시 서초구 서초동 1434-4,37.48422212,127.0237447,1999-07-01
대학원대학,서울사회복지대학원대학교,본교,서울,사립,서울특별시 영등포구 영신로34길 18,서울특별시 영등포구 영등포동4가 134-2,37.51955557,126.9031437,1999-12-18
대학원대학,온석대학원대학교,본교,경기,사립,경기도 용인시 처인구 남사읍 아곡로96번길 79,경기도 용인시 처인구 남사읍 아곡리 285,37.16168308,127.1636749,2000-09-04
대학원대학,국제법률경영대학원대학교,본교,경기,사립,경기도 고양시 덕양구 내유길 230,경기도 고양시 덕양구 내유동 300,37.72671402,126.8683001,2000-12-27
대학원대학,국제언어대학원대학교,본교,서울,사립,서울특별시 강동구 양재대로81길 89,서울특별시 강동구 성내동 448-10,37.5242252,127.1294853,2002-05-03
대학원대학,국제뇌교육종합대학원대학교,본교,충남,사립,충청남도 천안시 동남구 목천읍 교천지산길 284-31,충청남도 천안시 동남구 목천읍 지산리 167,36.79280809,127.1955716,2002-11-16
대학원대학,서울불교대학원대학교,본교,서울,사립,서울특별시 금천구 독산로70길 8,서울특별시 금천구 독산동 1038-2,37.46641802,126.9023257,2002-05-03
대학원대학,서울외국어대학원대학교,본교,서울,사립,서울특별시 서초구 남부순환로356길 85,서울특별시 서초구 양재동 17-7,37.48127854,127.0389564,2003-03-01
대학원대학,서울벤처대학원대학교,본교,서울,사립,서울특별시 강남구 봉은사로 405,서울특별시 강남구 삼성동 37-18,37.5107746,127.0443688,2002-10-17
대학원대학,성서침례대학원대학교,본교,경기,사립,경기도 이천시 대월면 대평로 548-123,경기도 이천시 대월면 장평리 280-4,37.20889607,127.5281308,2003-03-01
대학원대학,에스라성경대학원대학교,본교,경기,사립,경기도 고양시 덕양구 대양로285번길 33-7,경기도 고양시 덕양구 고양동 292,37.70322617,126.8945191,2003-03-01
대학원대학,개신대학원대학교,본교,서울,사립,서울특별시 강북구 도봉로 235,서울특별시 강북구 미아동 203-8,37.62955491,127.0245062,2003-04-17
대학원대학,과학기술연합대학원대학교,본교,대전,기타,대전광역시 유성구 가정로 217,대전광역시 유성구 가정동 176-1,36.38490813,127.367623,2003-10-22
대학원대학,서울과학종합대학원대학교,본교,서울,사립,서울특별시 서대문구 이화여대2길 46,서울특별시 서대문구 대현동 67-7,37.55739355,126.9485237,2003-11-13
대학원대학,선학유피대학원대학교,본교,경기,사립,경기도 가평군 설악면 미사리로 324-211,경기도 가평군 설악면 송산리 산 102,37.68843364,127.5407026,2003-10-22
대학원대학,경안대학원대학교,본교,경북,사립,경상북도 안동시 북후면 물한길 16-29,경상북도 안동시 북후면 물한리 652-10,36.65679585,128.7044803,2004-10-29
대학원대학,동방문화대학원대학교,본교,서울,사립,서울특별시 성북구 성북로28길 60,서울특별시 성북구 성북동 292-1,37.59665664,126.9914878,2004-11-04
대학원대학,북한대학원대학교,본교,서울,사립,서울특별시 종로구 북촌로15길 2,서울특별시 종로구 삼청동 28-7,37.58580932,126.9836738,2005-03-01
대학원대학,순복음대학원대학교,본교,서울,사립,서울특별시 관악구 과천대로 927,서울특별시 관악구 남현동 602-127,37.47341613,126.9818482,2004-04-07
대학원대학,실천신학대학원대학교,본교,경기,사립,경기도 이천시 신둔면 인배로145번길 23,경기도 이천시 신둔면 인후리 10,37.31466414,127.3819523,2005-03-01
대학원대학,한림국제대학원대학교,본교,서울,사립,서울특별시 강남구 역삼로 405,서울특별시 강남구 대치동 907-13,37.5009761,127.0514256,2004-12-09
대학원대학,한반도국제대학원대학교,본교,서울,사립,서울특별시 용산구 임정로 17,서울특별시 용산구 효창동 5-357,37.54307721,126.9601392,2005-12-02
대학원대학,서울미디어대학원대학교,본교,서울,사립,서울특별시 강서구 화곡로61길 99,서울특별시 강서구 등촌동 661,37.55820498,126.8469708,2009-03-01
대학원대학,서울상담심리대학원대학교,본교,서울,사립,서울특별시 종로구 율곡로 154,서울특별시 종로구 원남동 150-6,37.57608478,126.9959192,2009-09-01
대학원대학,한국상담대학원대학교,본교,서울,사립,서울특별시 서초구 효령로 366,서울특별시 서초구 서초동 1437-1,37.48691653,127.0239756,2010-03-02
대학원대학,주안대학원대학교,본교,인천,사립,인천광역시 미추홀구 석바위로74번길 11,인천광역시 미추홀구 주안동 171-2,37.46047923,126.681468,2011-03-01
대학원대학,한국전력국제원자력대학원대학교,본교,울산,사립,울산광역시 울주군 서생면 해맞이로 658-91,울산광역시 울주군 서생면 신암리 1466,35.33387871,129.3088033,2012-03-01
대학원대학,한국학대학원,본교,경기,특별법법인,경기도 성남시 분당구 하오개로 323,경기도 성남시 분당구 운중동 490-8,37.39193525,127.0552655,1980-03-01
대학원,국립강릉원주대학교 대학원,본교,강원,국립,강원특별자치도 강릉시 죽헌길 7,강원특별자치도 강릉시 지변동 123,37.76569493,128.8700048,1979-01-18
대학원,국립강릉원주대학교 대학원,제2캠퍼스,강원,국립,강원특별자치도 원주시 흥업면 남원로 150,강원특별자치도 원주시 흥업면 흥업리 7,37.30517245,127.9221473,1979-01-18
대학원,국립강릉원주대학교 경영정책과학대학원,제2캠퍼스,강원,국립,강원특별자치도 원주시 흥업면 남원로 150,강원특별자치도 원주시 흥업면 흥업리 7,37.30517245,127.9221473,2009-03-01
대학원,국립강릉원주대학교 경영정책과학대학원,본교,강원,국립,강원특별자치도 강릉시 죽헌길 7,강원특별자치도 강릉시 지변동 123,37.76569493,128.8700048,1979-01-18
대학원,국립강릉원주대학교 교육대학원,제2캠퍼스,강원,국립,강원특별자치도 원주시 흥업면 남원로 150,강원특별자치도 원주시 흥업면 흥업리 7,37.30517245,127.9221473,1995-03-01
대학원,국립강릉원주대학교 교육대학원,본교,강원,국립,강원특별자치도 강릉시 죽헌길 7,강원특별자치도 강릉시 지변동 123,37.76569493,128.8700048,1995-03-01
대학원,국립강릉원주대학교 산업대학원,본교,강원,국립,강원특별자치도 강릉시 죽헌길 7,강원특별자치도 강릉시 지변동 123,37.76569493,128.8700048,1996-03-01
대학원,국립강릉원주대학교 산업대학원,제2캠퍼스,강원,국립,강원특별자치도 원주시 흥업면 남원로 150,강원특별자치도 원주시 흥업면 흥업리 7,37.30517245,127.9221473,1979-01-18
대학원,강원대학교 일반대학원,본교,강원,국립,강원특별자치도 춘천시 강원대학길 1,강원특별자치도 춘천시 효자동 192-1,37.86802431,127.7483874,1968-01-10
대학원,강원대학교 경영대학원,본교,강원,국립,강원특별자치도 춘천시 강원대학길 1,강원특별자치도 춘천시 효자동 192-1,37.86802431,127.7483874,1979-12-05
대학원,강원대학교 교육대학원,본교,강원,국립,강원특별자치도 춘천시 강원대학길 1,강원특별자치도 춘천시 효자동 192-1,37.86802431,127.7483874,1978-12-30
대학원,강원대학교 산업과학대학원,제2캠퍼스,강원,국립,강원특별자치도 삼척시 중앙로 346,강원특별자치도 삼척시 교동 777,37.45079204,129.1599405,2006-03-01
대학원,강원대학교 산업대학원,본교,강원,국립,강원특별자치도 춘천시 강원대학길 1,강원특별자치도 춘천시 효자동 192-1,37.86802431,127.7483874,1991-03-01
대학원,강원대학교 법학전문대학원,본교,강원,국립,강원특별자치도 춘천시 강원대학길 1,강원특별자치도 춘천시 효자동 192-1,37.86802431,127.7483874,2009-03-02
대학원,강원대학교 의학전문대학원,본교,강원,국립,강원특별자치도 춘천시 강원대학길 1,강원특별자치도 춘천시 효자동 192-1,37.86802431,127.7483874,2008-03-01
대학원,강원대학교 정보과학・행정대학원,본교,강원,국립,강원특별자치도 춘천시 강원대학길 1,강원특별자치도 춘천시 효자동 192-1,37.86802431,127.7483874,1996-03-01
대학원,강원대학교 법무전문대학원,본교,강원,국립,강원특별자치도 춘천시 강원대학길 1,강원특별자치도 춘천시 효자동 192-1,37.86802431,127.7483874,2009-03-02
대학원,강원대학교 방재전문대학원,제2캠퍼스,강원,국립,강원특별자치도 삼척시 중앙로 346,강원특별자치도 삼척시 교동 777,37.45079204,129.1599405,2006-03-01
대학원,강원대학교 녹색생명산업정책대학원,본교,강원,국립,강원특별자치도 춘천시 강원대학길 1,강원특별자치도 춘천시 효자동 192-1,37.86802431,127.7483874,2012-03-01
대학원,경북대학교 일반대학원,본교,대구,국립,대구광역시 북구 대학로 80,대구광역시 북구 산격동 1370-1,35.88909749,128.6143223,1953-05-18
대학원,경북대학교 경영대학원,본교,대구,국립,대구광역시 북구 대학로 80,대구광역시 북구 산격동 1370-1,35.88909749,128.6143223,1981-03-02
대학원,경북대학교 교육대학원,본교,대구,국립,대구광역시 북구 대학로 80,대구광역시 북구 산격동 1370-1,35.88909749,128.6143223,1969-02-18
대학원,경북대학교 국제대학원,본교,대구,국립,대구광역시 북구 대학로 80,대구광역시 북구 산격동 1370-1,35.88909749,128.6143223,1997-03-01
대학원,경북대학교 보건대학원,본교,대구,국립,대구광역시 중구 국채보상로 680,대구광역시 중구 동인동2가 101,35.86783816,128.6040529,1981-03-01
대학원,경북대학교 산업대학원,본교,대구,국립,대구광역시 북구 대학로 80,대구광역시 북구 산격동 1370-1,35.88909749,128.6143223,1984-11-27
대학원,경북대학교 정책정보대학원,본교,대구,국립,대구광역시 북구 대학로 80,대구광역시 북구 산격동 1370-1,35.88909749,128.6143223,2000-03-01
대학원,경북대학교 행정대학원,본교,대구,국립,대구광역시 북구 대학로 80,대구광역시 북구 산격동 1370-1,35.88909749,128.6143223,1979-12-05
대학원,경북대학교 법학전문대학원,본교,대구,국립,대구광역시 북구 대학로 80,대구광역시 북구 산격동 1370-1,35.88909749,128.6143223,2009-03-02
대학원,경북대학교 수사과학대학원,본교,대구,국립,대구광역시 중구 국채보상로 680,대구광역시 중구 동인동2가 101,35.86783816,128.6040529,2003-03-01
대학원,경북대학교 의학전문대학원,본교,대구,국립,대구광역시 중구 국채보상로 680,대구광역시 중구 동인동2가 101,35.86783816,128.6040529,2006-03-01
대학원,경북대학교 치의학전문대학원,본교,대구,국립,대구광역시 중구 달구벌대로 2177,대구광역시 중구 삼덕동2가 188-1,35.86389851,128.6013945,2005-03-01
대학원,경상국립대학교 대학원,본교,경남,국립,경상남도 진주시 진주대로 501,경상남도 진주시 가좌동 900,35.15671422,128.0980014,1975-03-10
대학원,경상국립대학교 경영대학원,본교,경남,국립,경상남도 진주시 진주대로 501,경상남도 진주시 가좌동 900,35.15671422,128.0980014,1999-11-02
대학원,경상국립대학교 교육대학원,본교,경남,국립,경상남도 진주시 진주대로 501,경상남도 진주시 가좌동 900,35.15671422,128.0980014,1979-12-05
대학원,경상국립대학교 보건대학원,본교,경남,국립,경상남도 진주시 진주대로816번길 15,경상남도 진주시 주약동 56,35.17594748,128.0947449,2009-09-01
대학원,경상국립대학교 행정대학원,본교,경남,국립,경상남도 진주시 진주대로 501,경상남도 진주시 가좌동 900,35.15671422,128.0980014,1999-11-02
대학원,경상국립대학교 의학전문대학원,본교,경남,국립,경상남도 진주시 진주대로816번길 15,경상남도 진주시 주약동 56,35.17594748,128.0947449,2006-03-01
대학원,경상국립대학교 융합과학기술대학원,본교,경남,국립,경상남도 진주시 진주대로 501,경상남도 진주시 가좌동 900,35.15671422,128.0980014,1973-03-10
대학원,경상국립대학교 항공우주특성화대학원,본교,경남,국립,경상남도 진주시 진주대로 501,경상남도 진주시 가좌동 900,35.15671422,128.0980014,2009-03-01
대학원,국립공주대학교 대학원,본교,충남,국립,충청남도 공주시 공주대학로 56,충청남도 공주시 신관동 182,36.46684834,127.1386693,1990-11-08
대학원,국립공주대학교 경영행정대학원,본교,충남,국립,충청남도 공주시 공주대학로 56,충청남도 공주시 신관동 182,36.46684834,127.1386693,1997-03-01
대학원,국립공주대학교 교육대학원,본교,충남,국립,충청남도 공주시 공주대학로 56,충청남도 공주시 신관동 182,36.46684834,127.1386693,1980-11-03
대학원,국립공주대학교 산업과학대학원,본교,충남,국립,충청남도 예산군 예산읍 대학로 54,충청남도 예산군 예산읍 대회리 1,36.66988834,126.8594141,1994-03-01
대학원,국립공주대학교 특수교육대학원,본교,충남,국립,충청남도 공주시 공주대학로 56,충청남도 공주시 신관동 182,36.46684834,127.1386693,1998-11-16
대학원,국립공주대학교 영상예술대학원,본교,충남,국립,충청남도 공주시 공주대학로 56,충청남도 공주시 신관동 182,36.46684834,127.1386693,2001-07-26
대학원,국립공주대학교 테크노전략대학원,본교,충남,국립,충청남도 천안시 서북구 천안대로 1223-24,충청남도 천안시 서북구 부대동 275,36.85084041,127.1510196,2009-03-01
대학원,국립공주대학교 안보과학대학원,본교,충남,국립,충청남도 공주시 공주대학로 56,충청남도 공주시 신관동 182,36.46684834,127.1386693,1997-10-25
대학원,국립공주대학교 문화유산대학원,본교,충남,국립,충청남도 공주시 공주대학로 56,충청남도 공주시 신관동 182,36.46684834,127.1386693,2012-03-01
대학원,국립군산대학교 대학원,본교,전북,국립,전북특별자치도 군산시 대학로 558,전북특별자치도 군산시 미룡동 290-2,35.95034571,126.6803568,1987-11-09
대학원,국립군산대학교 경영행정대학원,본교,전북,국립,전북특별자치도 군산시 대학로 558,전북특별자치도 군산시 미룡동 290-2,35.95034571,126.6803568,1994-10-21
대학원,국립군산대학교 교육대학원,본교,전북,국립,전북특별자치도 군산시 대학로 558,전북특별자치도 군산시 미룡동 290-2,35.95034571,126.6803568,1995-10-23
대학원,국립군산대학교 산업대학원,본교,전북,국립,전북특별자치도 군산시 대학로 558,전북특별자치도 군산시 미룡동 290-2,35.95034571,126.6803568,1993-09-04
대학원,국립금오공과대학교 대학원,본교,경북,국립,경상북도 구미시 대학로 61,경상북도 구미시 양호동 1,36.14563154,128.3878819,1987-11-09
대학원,국립금오공과대학교 교육대학원,본교,경북,국립,경상북도 구미시 대학로 61,경상북도 구미시 양호동 1,36.14563154,128.3878819,1999-11-20
대학원,국립금오공과대학교 산업대학원,본교,경북,국립,경상북도 구미시 대학로 61,경상북도 구미시 양호동 1,36.14563154,128.3878819,1986-11-29
대학원,국립금오공과대학교 컨설팅대학원,본교,경북,국립,경상북도 구미시 대학로 61,경상북도 구미시 양호동 1,36.14563154,128.3878819,2010-03-01
대학원,국립목포대학교 대학원,본교,전남,국립,전라남도 무안군 청계면 영산로 1666,전라남도 무안군 청계면 도림리 61,34.91030656,126.4402102,1988-03-01
대학원,국립목포대학교 경영행정대학원,본교,전남,국립,전라남도 무안군 삼향읍 남악로 190,전라남도 무안군 삼향읍 남악리 2540-1,34.80493183,126.4597267,1991-02-28
대학원,국립목포대학교 교육대학원,본교,전남,국립,전라남도 무안군 청계면 영산로 1666,전라남도 무안군 청계면 도림리 61,34.91030656,126.4402102,1994-03-01
대학원,국립목포대학교 산업기술대학원,본교,전남,국립,전라남도 무안군 청계면 영산로 1666,전라남도 무안군 청계면 도림리 61,34.91030656,126.4402102,1995-03-01
대학원,국립목포해양대학교 대학원,본교,전남,국립,전라남도 목포시 해양대학로 91,전라남도 목포시 죽교동 562-84,34.78996375,126.3658262,1997-03-01
대학원,국립목포해양대학교 해양산업대학원,본교,전남,국립,전라남도 목포시 해양대학로 91,전라남도 목포시 죽교동 562-84,34.78996375,126.3658262,2002-03-01
대학원,국립부경대학교 대학원,본교,부산,국립,부산광역시 남구 용소로 45,부산광역시 남구 대연동 430-1,35.13116783,129.1048238,1954-10-01
대학원,국립부경대학교 경영대학원,본교,부산,국립,부산광역시 남구 용소로 45,부산광역시 남구 대연동 430-1,35.13116783,129.1048238,1998-03-01
대학원,국립부경대학교 교육대학원,본교,부산,국립,부산광역시 남구 용소로 45,부산광역시 남구 대연동 430-1,35.13116783,129.1048238,1995-10-23
대학원,국립부경대학교 국제대학원,본교,부산,국립,부산광역시 남구 용소로 45,부산광역시 남구 대연동 430-1,35.13116783,129.1048238,2003-03-01
대학원,국립부경대학교 산업대학원,본교,부산,국립,부산광역시 남구 용소로 45,부산광역시 남구 대연동 430-1,35.13116783,129.1048238,1987-11-09
대학원,부산대학교 일반대학원,본교,부산,국립,부산광역시 금정구 부산대학로 63,부산광역시 금정구 장전동 400-61,35.23139816,129.0843891,1953-08-17
대학원,부산대학교 경영대학원,본교,부산,국립,부산광역시 금정구 부산대학로 63,부산광역시 금정구 장전동 400-61,35.23139816,129.0843891,1969-03-01
대학원,부산대학교 교육대학원,본교,부산,국립,부산광역시 금정구 부산대학로 63,부산광역시 금정구 장전동 400-61,35.23139816,129.0843891,1975-03-10
대학원,부산대학교 산업대학원,본교,부산,국립,부산광역시 금정구 부산대학로 63,부산광역시 금정구 장전동 400-61,35.23139816,129.0843891,1982-03-01
대학원,부산대학교 행정대학원,본교,부산,국립,부산광역시 금정구 부산대학로 63,부산광역시 금정구 장전동 400-61,35.23139816,129.0843891,1972-07-29
대학원,부산대학교 환경대학원,본교,부산,국립,부산광역시 금정구 부산대학로 63,부산광역시 금정구 장전동 400-61,35.23139816,129.0843891,1989-03-01
대학원,부산대학교 한의학전문대학원,본교,경남,국립,경상남도 양산시 물금읍 부산대학로 49,경상남도 양산시 물금읍 범어리 2762-1,35.32564017,129.0013952,2008-03-01
대학원,부산대학교 국제전문대학원,본교,부산,국립,부산광역시 금정구 부산대학로63번길 2,부산광역시 금정구 장전동 40,35.2322428,129.0838245,2004-03-01
대학원,부산대학교 법학전문대학원,본교,부산,국립,부산광역시 금정구 부산대학로 63,부산광역시 금정구 장전동 400-61,35.23139816,129.0843891,2009-03-01
대학원,부산대학교 의학전문대학원,본교,경남,국립,경상남도 양산시 물금읍 부산대학로 49,경상남도 양산시 물금읍 범어리 2762-1,35.32564017,129.0013952,2006-03-01
대학원,부산대학교 치의학전문대학원,본교,경남,국립,경상남도 양산시 물금읍 부산대학로 49,경상남도 양산시 물금읍 범어리 2762-1,35.32564017,129.0013952,2006-03-01
대학원,부산대학교 경제통상대학원,본교,부산,국립,부산광역시 금정구 부산대학로 63,부산광역시 금정구 장전동 400-61,35.23139816,129.0843891,2010-09-01
대학원,서울대학교 대학원,본교,서울,국립대법인,서울특별시 관악구 관악로 1,서울특별시 관악구 신림동 산 56-1,37.46803806,126.9592943,1946-08-22
대학원,서울대학교 국제대학원,본교,서울,국립대법인,서울특별시 관악구 관악로 1,서울특별시 관악구 신림동 산 56-1,37.46803806,126.9592943,2003-02-25
대학원,서울대학교 보건대학원,본교,서울,국립대법인,서울특별시 관악구 관악로 1,서울특별시 관악구 신림동 산 56-1,37.46803806,126.9592943,1959-01-13
대학원,서울대학교 행정대학원,본교,서울,국립대법인,서울특별시 관악구 관악로 1,서울특별시 관악구 신림동 산 56-1,37.46803806,126.9592943,1959-01-13
대학원,서울대학교 환경대학원,본교,서울,국립대법인,서울특별시 관악구 관악로 1,서울특별시 관악구 신림동 산 56-1,37.46803806,126.9592943,1973-01-25
대학원,서울대학교 경영전문대학원,본교,서울,국립대법인,서울특별시 관악구 관악로 1,서울특별시 관악구 신림동 산 56-1,37.46803806,126.9592943,2006-08-24
대학원,서울대학교 법학전문대학원,본교,서울,국립대법인,서울특별시 관악구 관악로 1,서울특별시 관악구 신림동 산 56-1,37.46803806,126.9592943,2009-03-01
대학원,서울대학교 치의학대학원,본교,서울,국립대법인,서울특별시 종로구 대학로 101,서울특별시 종로구 연건동 28-21,37.58045239,126.9971964,2005-03-01
대학원,서울대학교 의학대학원,본교,서울,국립대법인,서울특별시 종로구 대학로 103,서울특별시 종로구 연건동 28-2,37.5812243,127.0010236,2008-12-05
대학원,서울대학교 융합과학기술대학원,본교,서울,국립대법인,서울특별시 관악구 관악로 1,서울특별시 관악구 신림동 산 56-1,37.46803806,126.9592943,2009-03-01
대학원,국립순천대학교 일반대학원,본교,전남,국립,전라남도 순천시 중앙로 255,전라남도 순천시 석현동 313,34.96676128,127.4809231,1987-01-01
대학원,국립순천대학교 경영행정대학원,본교,전남,국립,전라남도 순천시 중앙로 255,전라남도 순천시 석현동 313,34.96676128,127.4809231,1995-10-18
대학원,국립순천대학교 교육대학원,본교,전남,국립,전라남도 순천시 중앙로 255,전라남도 순천시 석현동 313,34.96676128,127.4809231,1993-09-06
대학원,국립순천대학교 산업대학원,본교,전남,국립,전라남도 순천시 중앙로 255,전라남도 순천시 석현동 313,34.96676128,127.4809231,1994-10-21
대학원,국립순천대학교 사회문화예술대학원,본교,전남,국립,전라남도 순천시 중앙로 255,전라남도 순천시 석현동 313,34.96676128,127.4809231,2008-03-01
대학원,국립안동대학교 일반대학원,본교,경북,국립,경상북도 안동시 경동로 1375,경상북도 안동시 송천동 388,36.5414385,128.797564,1988-03-01
대학원,국립안동대학교 교육대학원,본교,경북,국립,경상북도 안동시 경동로 1375,경상북도 안동시 송천동 388,36.5414385,128.797564,1995-03-01
대학원,국립안동대학교 행정경영대학원,본교,경북,국립,경상북도 안동시 경동로 1375,경상북도 안동시 송천동 388,36.5414385,128.797564,1995-03-01
대학원,국립안동대학교 한국문화산업전문대학원,본교,경북,국립,경상북도 안동시 경동로 1375,경상북도 안동시 송천동 388,36.5414385,128.797564,2010-03-01
대학원,전남대학교 대학원,본교,광주,국립,광주광역시 북구 용봉로 45,광주광역시 북구 용봉동 300,35.1729465,126.9011018,1952-06-09
대학원,전남대학교 교육대학원,본교,광주,국립,광주광역시 북구 용봉로 45,광주광역시 북구 용봉동 300,35.1729465,126.9011018,1975-03-10
대학원,전남대학교 산업대학원,본교,광주,국립,광주광역시 북구 용봉로 45,광주광역시 북구 용봉동 300,35.1729465,126.9011018,1988-11-30
대학원,전남대학교 행정대학원,본교,광주,국립,광주광역시 북구 용봉로 45,광주광역시 북구 용봉동 300,35.1729465,126.9011018,1979-12-05
대학원,전남대학교 경영전문대학원,본교,광주,국립,광주광역시 북구 용봉로 45,광주광역시 북구 용봉동 300,35.1729465,126.9011018,2007-03-01
대학원,전남대학교 법학전문대학원,본교,광주,국립,광주광역시 북구 용봉로 45,광주광역시 북구 용봉동 300,35.1729465,126.9011018,2009-03-01
대학원,전남대학교 의학전문대학원,본교,광주,국립,광주광역시 북구 용봉로 45,광주광역시 북구 용봉동 300,35.1729465,126.9011018,2009-03-01
대학원,전남대학교 치의학전문대학원,본교,광주,국립,광주광역시 북구 용봉로 45,광주광역시 북구 용봉동 300,35.1729465,126.9011018,2005-03-01
대학원,전남대학교 산학협력대학원,제2캠퍼스,전남,국립,전라남도 여수시 대학로 50,전라남도 여수시 둔덕동 산 96-1,34.7729995,127.7005509,2006-03-01
대학원,전남대학교 수산해양대학원,제2캠퍼스,전남,국립,전라남도 여수시 대학로 50,전라남도 여수시 둔덕동 산 96-1,34.7729995,127.7005509,2006-03-01
대학원,전남대학교 문화전문대학원,본교,광주,국립,광주광역시 북구 용봉로 45,광주광역시 북구 용봉동 300,35.1729465,126.9011018,2006-03-01
대학원,전북대학교 대학원,본교,전북,국립,전북특별자치도 전주시 덕진구 백제대로 567,전북특별자치도 전주시 덕진구 금암동 663,35.8411407,127.13159,1952-11-01
대학원,전북대학교 경영대학원,본교,전북,국립,전북특별자치도 전주시 덕진구 백제대로 567,전북특별자치도 전주시 덕진구 금암동 663,35.8411407,127.13159,1970-02-10
대학원,전북대학교 교육대학원,본교,전북,국립,전북특별자치도 전주시 덕진구 백제대로 567,전북특별자치도 전주시 덕진구 금암동 663,35.8411407,127.13159,1976-03-11
대학원,전북대학교 법무대학원,본교,전북,국립,전북특별자치도 전주시 덕진구 백제대로 567,전북특별자치도 전주시 덕진구 금암동 663,35.8411407,127.13159,2003-03-01
대학원,전북대학교 보건대학원,본교,전북,국립,전북특별자치도 전주시 덕진구 백제대로 567,전북특별자치도 전주시 덕진구 금암동 663,35.8411407,127.13159,1994-10-21
대학원,전북대학교 산업기술대학원,본교,전북,국립,전북특별자치도 전주시 덕진구 백제대로 567,전북특별자치도 전주시 덕진구 금암동 663,35.8411407,127.13159,1989-11-06
대학원,전북대학교 정보과학대학원,본교,전북,국립,전북특별자치도 전주시 덕진구 백제대로 567,전북특별자치도 전주시 덕진구 금암동 663,35.8411407,127.13159,1993-09-04
대학원,전북대학교 행정대학원,본교,전북,국립,전북특별자치도 전주시 덕진구 백제대로 567,전북특별자치도 전주시 덕진구 금암동 663,35.8411407,127.13159,1981-11-25
대학원,전북대학교 환경대학원,본교,전북,국립,전북특별자치도 전주시 덕진구 백제대로 567,전북특별자치도 전주시 덕진구 금암동 663,35.8411407,127.13159,1984-11-27
대학원,전북대학교 법학전문대학원,본교,전북,국립,전북특별자치도 전주시 덕진구 백제대로 567,전북특별자치도 전주시 덕진구 금암동 663,35.8411407,127.13159,2009-03-01
대학원,전북대학교 의학전문대학원,본교,전북,국립,전북특별자치도 전주시 덕진구 백제대로 567,전북특별자치도 전주시 덕진구 금암동 663,35.8411407,127.13159,2006-03-01
대학원,전북대학교 치의학전문대학원,본교,전북,국립,전북특별자치도 전주시 덕진구 백제대로 567,전북특별자치도 전주시 덕진구 금암동 663,35.8411407,127.13159,2005-03-01
대학원,전북대학교 생명자원과학대학원,본교,전북,국립,전북특별자치도 전주시 덕진구 백제대로 567,전북특별자치도 전주시 덕진구 금암동 663,35.8411407,127.13159,2001-06-13
대학원,전북대학교 유연인쇄전자전문대학원,본교,전북,국립,전북특별자치도 전주시 덕진구 백제대로 567,전북특별자치도 전주시 덕진구 금암동 663,35.8411407,127.13159,2011-12-01
대학원,제주대학교 대학원,본교,제주,국립,제주특별자치도 제주시 제주대학로 102,제주특별자치도 제주시 아라일동 1,33.45723698,126.5642939,1979-03-01
대학원,제주대학교 경영대학원,본교,제주,국립,제주특별자치도 제주시 제주대학로 102,제주특별자치도 제주시 아라일동 1,33.45723698,126.5642939,1990-03-01
대학원,제주대학교 교육대학원,본교,제주,국립,제주특별자치도 제주시 제주대학로 102,제주특별자치도 제주시 아라일동 1,33.45723698,126.5642939,1979-03-01
대학원,제주대학교 사회교육대학원,본교,제주,국립,제주특별자치도 제주시 제주대학로 102,제주특별자치도 제주시 아라일동 1,33.45723698,126.5642939,2008-03-01
대학원,제주대학교 산업대학원,본교,제주,국립,제주특별자치도 제주시 제주대학로 102,제주특별자치도 제주시 아라일동 1,33.45723698,126.5642939,1997-03-01
대학원,제주대학교 행정대학원,본교,제주,국립,제주특별자치도 제주시 제주대학로 102,제주특별자치도 제주시 아라일동 1,33.45723698,126.5642939,1991-03-01
대학원,제주대학교 법학전문대학원,본교,제주,국립,제주특별자치도 제주시 제주대학로 102,제주특별자치도 제주시 아라일동 1,33.45723698,126.5642939,2009-03-01
대학원,제주대학교 의학전문대학원,본교,제주,국립,제주특별자치도 제주시 제주대학로 102,제주특별자치도 제주시 아라일동 1,33.45723698,126.5642939,2008-03-01
대학원,국립창원대학교 대학원,본교,경남,국립,경상남도 창원시 의창구 창원대학로 20,경상남도 창원시 의창구 퇴촌동 69,35.24700312,128.6919277,1988-03-01
대학원,국립창원대학교 경영대학원,본교,경남,국립,경상남도 창원시 의창구 창원대학로 20,경상남도 창원시 의창구 퇴촌동 69,35.24700312,128.6919277,1997-03-01
대학원,국립창원대학교 교육대학원,본교,경남,국립,경상남도 창원시 의창구 창원대학로 20,경상남도 창원시 의창구 퇴촌동 69,35.24700312,128.6919277,1994-03-01
대학원,국립창원대학교 노동대학원,본교,경남,국립,경상남도 창원시 의창구 창원대학로 20,경상남도 창원시 의창구 퇴촌동 69,35.24700312,128.6919277,1999-11-02
대학원,국립창원대학교 보건대학원,본교,경남,국립,경상남도 창원시 의창구 창원대학로 20,경상남도 창원시 의창구 퇴촌동 69,35.24700312,128.6919277,2010-12-06
대학원,국립창원대학교 사회복지대학원,본교,경남,국립,경상남도 창원시 의창구 창원대학로 20,경상남도 창원시 의창구 퇴촌동 69,35.24700312,128.6919277,2010-03-01
대학원,국립창원대학교 행정대학원,본교,경남,국립,경상남도 창원시 의창구 창원대학로 20,경상남도 창원시 의창구 퇴촌동 69,35.24700312,128.6919277,1997-03-01
대학원,국립창원대학교 그린에너지대학원,본교,경남,국립,경상남도 창원시 의창구 창원대학로 20,경상남도 창원시 의창구 퇴촌동 69,35.24700312,128.6919277,2010-03-01
대학원,충남대학교 대학원,본교,대전,국립,대전광역시 유성구 대학로 99,대전광역시 유성구 궁동 220,36.36836824,127.3420015,1957-04-04
대학원,충남대학교 경영대학원,본교,대전,국립,대전광역시 유성구 대학로 99,대전광역시 유성구 궁동 220,36.36836824,127.3420015,1970-03-01
대학원,충남대학교 교육대학원,본교,대전,국립,대전광역시 유성구 대학로 99,대전광역시 유성구 궁동 220,36.36836824,127.3420015,1975-03-10
대학원,충남대학교 보건대학원,본교,대전,국립,대전광역시 중구 문화로 266,대전광역시 중구 문화동 6,36.31631924,127.4138007,1988-11-30
대학원,충남대학교 산업대학원,본교,대전,국립,대전광역시 유성구 대학로 99,대전광역시 유성구 궁동 220,36.36836824,127.3420015,1989-12-30
대학원,충남대학교 특허법무대학원,본교,대전,국립,대전광역시 유성구 대학로 99,대전광역시 유성구 궁동 220,36.36836824,127.3420015,2000-03-01
대학원,충남대학교 행정대학원,본교,대전,국립,대전광역시 유성구 대학로 99,대전광역시 유성구 궁동 220,36.36836824,127.3420015,1981-11-25
대학원,충남대학교 법학전문대학원,본교,대전,국립,대전광역시 유성구 대학로 99,대전광역시 유성구 궁동 220,36.36836824,127.3420015,2009-03-01
대학원,충남대학교 평화안보대학원,본교,대전,국립,대전광역시 유성구 대학로 99,대전광역시 유성구 궁동 220,36.36836824,127.3420015,2002-03-01
대학원,충남대학교 의학전문대학원,본교,대전,국립,대전광역시 유성구 대학로 99,대전광역시 유성구 궁동 220,36.36836824,127.3420015,2009-03-01
대학원,충남대학교 분석과학기술대학원,본교,대전,국립,대전광역시 유성구 대학로 99,대전광역시 유성구 궁동 220,36.36836824,127.3420015,2009-03-01
대학원,충남대학교 녹색에너지기술전문대학원,본교,대전,국립,대전광역시 유성구 대학로 99,대전광역시 유성구 궁동 220,36.36836824,127.3420015,2010-03-02
대학원,충남대학교 신약전문대학원,본교,대전,국립,대전광역시 유성구 대학로 99,대전광역시 유성구 궁동 220,36.36836824,127.3420015,2010-03-02
대학원,충북대학교 대학원,본교,충북,국립,충청북도 청주시 서원구 충대로 1,충청북도 청주시 서원구 개신동 12,36.63003782,127.4547916,1968-01-10
대학원,충북대학교 경영대학원,본교,충북,국립,충청북도 청주시 서원구 충대로 1,충청북도 청주시 서원구 개신동 12,36.63003782,127.4547916,1991-11-15
대학원,충북대학교 교육대학원,본교,충북,국립,충청북도 청주시 서원구 충대로 1,충청북도 청주시 서원구 개신동 12,36.63003782,127.4547916,1975-03-10
대학원,충북대학교 법무대학원,본교,충북,국립,충청북도 청주시 서원구 충대로 1,충청북도 청주시 서원구 개신동 12,36.63003782,127.4547916,1996-11-04
대학원,충북대학교 산업대학원,본교,충북,국립,충청북도 청주시 서원구 충대로 1,충청북도 청주시 서원구 개신동 12,36.63003782,127.4547916,1989-11-06
대학원,충북대학교 행정대학원,본교,충북,국립,충청북도 청주시 서원구 충대로 1,충청북도 청주시 서원구 개신동 12,36.63003782,127.4547916,1987-11-09
대학원,충북대학교 법학전문대학원,본교,충북,국립,충청북도 청주시 서원구 충대로 1,충청북도 청주시 서원구 개신동 12,36.63003782,127.4547916,2009-03-01
대학원,한국교원대학교 대학원,본교,충북,국립,충청북도 청주시 흥덕구 강내면 태성탑연로 250,충청북도 청주시 흥덕구 강내면 다락리 산 7,36.6056652,127.3573247,1986-03-05
대학원,한국교원대학교 교육대학원,본교,충북,국립,충청북도 청주시 흥덕구 강내면 태성탑연로 250,충청북도 청주시 흥덕구 강내면 다락리 산 7,36.6056652,127.3573247,1997-03-01
대학원,한국교원대학교 교육정책전문대학원,본교,충북,국립,충청북도 청주시 흥덕구 강내면 태성탑연로 250,충청북도 청주시 흥덕구 강내면 다락리 산 7,36.6056652,127.3573247,2009-03-01
대학원,한국체육대학교 대학원,본교,서울,국립,서울특별시 송파구 양재대로 1239,서울특별시 송파구 방이동 88-15,37.51990463,127.1320005,1982-03-01
대학원,한국체육대학교 교육대학원,본교,서울,국립,서울특별시 송파구 양재대로 1239,서울특별시 송파구 방이동 88-15,37.51990463,127.1320005,2000-03-01
대학원,한국체육대학교 사회체육대학원,본교,서울,국립,서울특별시 송파구 양재대로 1239,서울특별시 송파구 방이동 88-15,37.51990463,127.1320005,1991-03-01
대학원,국립한국해양대학교 대학원,본교,부산,국립,부산광역시 영도구 태종로 727,부산광역시 영도구 동삼동 1,35.07440796,129.0873481,1960-04-16
대학원,국립한국해양대학교 교육대학원,본교,부산,국립,부산광역시 영도구 태종로 727,부산광역시 영도구 동삼동 1,35.07440796,129.0873481,2004-10-03
대학원,국립한국해양대학교 해사산업대학원,본교,부산,국립,부산광역시 영도구 태종로 727,부산광역시 영도구 동삼동 1,35.07440796,129.0873481,1988-11-30
대학원,국립한국해양대학교 해양관리기술대학원,본교,부산,국립,부산광역시 영도구 태종로 727,부산광역시 영도구 동삼동 1,35.07440796,129.0873481,1999-11-02
대학원,국립한국교통대학교 대학원,본교,충북,국립,충청북도 충주시 대소원면 대학로 50,충청북도 충주시 대소원면 검단리 123,36.9688467,127.8727694,2010-03-01
대학원,국립한국교통대학교 경영행정대학원,본교,충북,국립,충청북도 충주시 대소원면 대학로 50,충청북도 충주시 대소원면 검단리 123,36.9688467,127.8727694,2004-03-01
대학원,국립한국교통대학교 교육대학원,본교,충북,국립,충청북도 충주시 대소원면 대학로 50,충청북도 충주시 대소원면 검단리 123,36.9688467,127.8727694,2012-03-01
대학원,국립한국교통대학교 인문대학원,본교,충북,국립,충청북도 충주시 대소원면 대학로 50,충청북도 충주시 대소원면 검단리 123,36.9688467,127.8727694,2004-03-01
대학원,경남과학기술대학교 대학원,본교,경남,국립,경상남도 진주시 동진로 33,경상남도 진주시 칠암동 150-1,35.17926588,128.0920809,2011-03-01
대학원,경남과학기술대학교 창업대학원,본교,경남,국립,경상남도 진주시 동진로 33,경상남도 진주시 칠암동 150-1,35.17926588,128.0920809,2011-01-01
대학원,서울과학기술대학교 일반대학원,본교,서울,국립,서울특별시 노원구 공릉로 232,서울특별시 노원구 공릉동 172,37.63307893,127.0767947,2012-03-01
대학원,서울과학기술대학교 산업대학원,본교,서울,국립,서울특별시 노원구 공릉로 232,서울특별시 노원구 공릉동 172,37.63307893,127.0767947,2012-03-01
대학원,서울과학기술대학교 철도전문대학원,본교,서울,국립,서울특별시 노원구 공릉로 232,서울특별시 노원구 공릉동 172,37.63307893,127.0767947,2012-03-01
대학원,서울과학기술대학교 IT정책전문대학원,본교,서울,국립,서울특별시 노원구 공릉로 232,서울특별시 노원구 공릉동 172,37.63307893,127.0767947,2012-03-01
대학원,서울과학기술대학교 에너지환경대학원,본교,서울,국립,서울특별시 노원구 공릉로 232,서울특별시 노원구 공릉동 172,37.63307893,127.0767947,2012-03-01
대학원,한경국립대학교 일반대학원,본교,경기,국립,경기도 안성시 중앙로 327,경기도 안성시 석정동 55,37.01020238,127.2637664,1939-04-15
대학원,한경국립대학교 산업대학원,본교,경기,국립,경기도 안성시 중앙로 327,경기도 안성시 석정동 55,37.01020238,127.2637664,1996-03-01
대학원,한경국립대학교 국제개발협력대학원,본교,경기,국립,경기도 안성시 중앙로 327,경기도 안성시 석정동 55,37.01020238,127.2637664,2011-03-29
대학원,국립한밭대학교 일반대학원,본교,대전,국립,대전광역시 유성구 동서대로 125,대전광역시 유성구 덕명동 16-1,36.34526854,127.3052522,2012-03-01
대학원,국립한밭대학교 산업대학원,본교,대전,국립,대전광역시 유성구 동서대로 125,대전광역시 유성구 덕명동 16-1,36.34526854,127.3052522,2012-03-01
대학원,국립한밭대학교 정보통신전문대학원,본교,대전,국립,대전광역시 유성구 동서대로 125,대전광역시 유성구 덕명동 16-1,36.34526854,127.3052522,2012-03-01
대학원,국립한밭대학교 창업경영대학원,본교,대전,국립,대전광역시 유성구 동서대로 125,대전광역시 유성구 덕명동 16-1,36.34526854,127.3052522,2012-03-01
대학원,서울시립대학교 대학원,본교,서울,공립,서울특별시 동대문구 서울시립대로 163,서울특별시 동대문구 전농동 694,37.58257758,127.0599881,1980-11-24
대학원,서울시립대학교 경영대학원,본교,서울,공립,서울특별시 동대문구 서울시립대로 163,서울특별시 동대문구 전농동 694,37.58257758,127.0599881,1989-11-06
대학원,서울시립대학교 교육대학원,본교,서울,공립,서울특별시 동대문구 서울시립대로 163,서울특별시 동대문구 전농동 694,37.58257758,127.0599881,2000-03-01
대학원,서울시립대학교 과학기술대학원,본교,서울,공립,서울특별시 동대문구 서울시립대로 163,서울특별시 동대문구 전농동 694,37.58257758,127.0599881,1990-11-08
대학원,서울시립대학교 디자인전문대학원,본교,서울,공립,서울특별시 동대문구 서울시립대로 163,서울특별시 동대문구 전농동 694,37.58257758,127.0599881,2004-03-01
대학원,서울시립대학교 도시과학대학원,본교,서울,공립,서울특별시 동대문구 서울시립대로 163,서울특별시 동대문구 전농동 694,37.58257758,127.0599881,1986-11-25
대학원,서울시립대학교 법학전문대학원,본교,서울,공립,서울특별시 동대문구 서울시립대로 163,서울특별시 동대문구 전농동 694,37.58257758,127.0599881,2009-03-01
대학원,서울시립대학교 세무전문대학원,본교,서울,공립,서울특별시 동대문구 서울시립대로 163,서울특별시 동대문구 전농동 694,37.58257758,127.0599881,2000-03-01
대학원,가톨릭대학교 일반대학원,제2캠퍼스,서울,사립,서울특별시 서초구 반포대로 222,서울특별시 서초구 반포동 505,37.50239362,127.0058606,1995-03-01
대학원,가톨릭대학교 일반대학원,제3캠퍼스,서울,사립,서울특별시 종로구 창경궁로 296-12,서울특별시 종로구 혜화동 90-1,37.58490098,127.0047707,1995-03-01
대학원,가톨릭대학교 대학원,본교,경기,사립,경기도 부천시 원미구 지봉로 43,경기도 부천시 원미구 역곡동 산 43-1,37.48753137,126.7986015,1995-03-01
대학원,가톨릭대학교 경영대학원,본교,경기,사립,경기도 부천시 원미구 지봉로 43,경기도 부천시 원미구 역곡동 산 43-1,37.48753137,126.7986015,2003-03-01
대학원,가톨릭대학교 교육대학원,본교,경기,사립,경기도 부천시 원미구 지봉로 43,경기도 부천시 원미구 역곡동 산 43-1,37.48753137,126.7986015,1997-11-01
대학원,가톨릭대학교 교회음악대학원,제3캠퍼스,서울,사립,서울특별시 종로구 창경궁로 296-12,서울특별시 종로구 혜화동 90-1,37.58490098,127.0047707,2003-03-01
대학원,가톨릭대학교 보건대학원,제2캠퍼스,서울,사립,서울특별시 서초구 반포대로 222,서울특별시 서초구 반포동 505,37.50239362,127.0058606,1991-03-01
대학원,가톨릭대학교 사회복지대학원,본교,경기,사립,서울특별시 서초구 반포대로 222,서울특별시 서초구 반포동 505,37.50239362,127.0058606,1995-10-01
대학원,가톨릭대학교 행정대학원,본교,경기,사립,서울특별시 서초구 반포대로 222,서울특별시 서초구 반포동 505,37.50239362,127.0058606,2000-07-18
대학원,가톨릭대학교 의료경영대학원,제2캠퍼스,서울,사립,서울특별시 서초구 반포대로 222,서울특별시 서초구 반포동 505,37.50239362,127.0058606,1997-10-25
대학원,가톨릭대학교 임상치과학대학원,제2캠퍼스,서울,사립,서울특별시 서초구 반포대로 222,서울특별시 서초구 반포동 505,37.50239362,127.0058606,2000-07-18
대학원,가톨릭대학교 임상간호대학원,제2캠퍼스,서울,사립,서울특별시 서초구 반포대로 222,서울특별시 서초구 반포동 505,37.50239362,127.0058606,2002-03-01
대학원,가톨릭대학교 문화영성대학원,본교,경기,사립,서울특별시 서초구 반포대로 222,서울특별시 서초구 반포동 505,37.50239362,127.0058606,2003-03-01
대학원,가톨릭대학교 상담심리대학원,본교,경기,사립,서울특별시 서초구 반포대로 222,서울특별시 서초구 반포동 505,37.50239362,127.0058606,1996-11-02
대학원,가톨릭대학교 의학전문대학원,제2캠퍼스,서울,사립,서울특별시 서초구 반포대로 222,서울특별시 서초구 반포동 505,37.50239362,127.0058606,2009-03-01
대학원,가톨릭대학교 생명대학원,제2캠퍼스,서울,사립,서울특별시 서초구 반포대로 222,서울특별시 서초구 반포동 505,37.50239362,127.0058606,2008-03-01
대학원,감리교신학대학교 대학원,본교,서울,사립,서울특별시 서대문구 독립문로 56,서울특별시 서대문구 냉천동 31,37.56791676,126.9618924,1971-01-23
대학원,감리교신학대학교 목회신학대학원,본교,서울,사립,서울특별시 서대문구 독립문로 56,서울특별시 서대문구 냉천동 31,37.56791676,126.9618924,1997-10-25
대학원,감리교신학대학교 신학대학원,본교,서울,사립,서울특별시 서대문구 독립문로 56,서울특별시 서대문구 냉천동 31,37.56791676,126.9618924,1980-11-24
대학원,강남대학교 대학원,본교,경기,사립,경기도 용인시 기흥구 강남로 40,경기도 용인시 기흥구 구갈동 111,37.27412539,127.1320999,1994-12-22
대학원,강남대학교 교육대학원,본교,경기,사립,경기도 용인시 기흥구 강남로 40,경기도 용인시 기흥구 구갈동 111,37.27412539,127.1320999,1999-11-19
대학원,강남대학교 사회복지전문대학원,본교,경기,사립,경기도 용인시 기흥구 강남로 40,경기도 용인시 기흥구 구갈동 111,37.27412539,127.1320999,2001-07-26
대학원,강남대학교 실천신학대학원,본교,경기,사립,경기도 용인시 기흥구 강남로 40,경기도 용인시 기흥구 구갈동 111,37.27412539,127.1320999,1993-11-09
대학원,건국대학교(글로컬) 일반대학원,분교,충북,사립,충청북도 충주시 충원대로 268,충청북도 충주시 단월동 322,36.94878087,127.9124302,1959-02-26
대학원,건국대학교 일반대학원,본교,서울,사립,서울특별시 광진구 능동로 120,서울특별시 광진구 화양동 1,37.53918267,127.0747119,1959-02-26
대학원,건국대학교 경영대학원,본교,서울,사립,서울특별시 광진구 능동로 120,서울특별시 광진구 화양동 1,37.53918267,127.0747119,1983-10-29
대학원,건국대학교(글로컬) 교육대학원,분교,충북,사립,충청북도 충주시 충원대로 268,충청북도 충주시 단월동 322,36.94878087,127.9124302,1998-03-01
대학원,건국대학교 교육대학원,본교,서울,사립,서울특별시 광진구 능동로 120,서울특별시 광진구 화양동 1,37.53918267,127.0747119,1979-03-10
대학원,건국대학교 농축대학원,본교,서울,사립,서울특별시 광진구 능동로 120,서울특별시 광진구 화양동 1,37.53918267,127.0747119,1984-11-27
대학원,건국대학교 디자인대학원,본교,서울,사립,서울특별시 광진구 능동로 120,서울특별시 광진구 화양동 1,37.53918267,127.0747119,1997-10-25
대학원,건국대학교(글로컬) 사회과학대학원,분교,충북,사립,충청북도 충주시 충원대로 268,충청북도 충주시 단월동 322,36.94878087,127.9124302,1987-11-09
대학원,건국대학교 산업대학원,본교,서울,사립,서울특별시 광진구 능동로 120,서울특별시 광진구 화양동 1,37.53918267,127.0747119,1979-12-05
대학원,건국대학교 언론홍보대학원,본교,서울,사립,서울특별시 광진구 능동로 120,서울특별시 광진구 화양동 1,37.53918267,127.0747119,1995-10-18
대학원,건국대학교 정보통신대학원,본교,서울,사립,서울특별시 광진구 능동로 120,서울특별시 광진구 화양동 1,37.53918267,127.0747119,1997-10-25
대학원,건국대학교 행정대학원,본교,서울,사립,서울특별시 광진구 능동로 120,서울특별시 광진구 화양동 1,37.53918267,127.0747119,1967-01-05
대학원,건국대학교 건축전문대학원,본교,서울,사립,서울특별시 광진구 능동로 120,서울특별시 광진구 화양동 1,37.53918267,127.0747119,1996-01-19
대학원,건국대학교 부동산대학원,본교,서울,사립,서울특별시 광진구 능동로 120,서울특별시 광진구 화양동 1,37.53918267,127.0747119,2000-07-28
대학원,건국대학교 경영전문대학원,본교,서울,사립,서울특별시 광진구 능동로 120,서울특별시 광진구 화양동 1,37.53918267,127.0747119,2010-03-01
대학원,건국대학교 법학전문대학원,본교,서울,사립,서울특별시 광진구 능동로 120,서울특별시 광진구 화양동 1,37.53918267,127.0747119,2009-02-11
대학원,건국대학교(글로컬) 의학전문대학원,분교,충북,사립,충청북도 충주시 충원대로 268,충청북도 충주시 단월동 322,36.94878087,127.9124302,2002-02-23
대학원,건양대학교 보건복지대학원,제2캠퍼스,대전,사립,대전광역시 서구 관저동로 158,대전광역시 서구 관저동 1643,36.30778182,127.3426468,1990-11-28
대학원,건양대학교 국방관리대학원,본교,충남,사립,충청남도 논산시 대학로 121,충청남도 논산시 내동 26,36.18215192,127.1096874,1990-11-28
대학원,건양대학교 경영사회복지대학원,본교,충남,사립,충청남도 논산시 대학로 121,충청남도 논산시 내동 26,36.18215192,127.1096874,1990-11-28
대학원,경기대학교 일반대학원,본교,경기,사립,서울특별시 서대문구 경기대로9길 24,서울특별시 서대문구 충정로2가 67-9,37.56519469,126.9622242,1979-11-27
대학원,경기대학교 건축대학원,본교,서울,사립,서울특별시 서대문구 경기대로9길 24,서울특별시 서대문구 충정로2가 67-9,37.56519469,126.9622242,2006-09-27
대학원,경기대학교 교육대학원,본교,경기,사립,경기도 수원시 영통구 광교산로 154-42,경기도 수원시 영통구 이의동 산 94-6,37.29801369,127.0331167,1987-11-09
대학원,경기대학교 문화예술대학원,본교,서울,사립,서울특별시 서대문구 경기대로9길 24,서울특별시 서대문구 충정로2가 67-9,37.56519469,126.9622242,2008-03-01
대학원,경기대학교 사회복지대학원,본교,서울,사립,서울특별시 서대문구 경기대로9길 24,서울특별시 서대문구 충정로2가 67-9,37.56519469,126.9622242,2002-10-30
대학원,경기대학교 산업정보대학원,본교,경기,사립,경기도 수원시 영통구 광교산로 154-42,경기도 수원시 영통구 이의동 산 94-6,37.29801369,127.0331167,1991-11-15
대학원,경기대학교 조형대학원,본교,경기,사립,경기도 수원시 영통구 광교산로 154-42,경기도 수원시 영통구 이의동 산 94-6,37.29801369,127.0331167,1995-03-01
대학원,경기대학교 행정대학원,본교,경기,사립,경기도 수원시 영통구 광교산로 154-42,경기도 수원시 영통구 이의동 산 94-6,37.29801369,127.0331167,1984-11-27
대학원,경기대학교 건축전문대학원,본교,서울,사립,서울특별시 서대문구 경기대로9길 24,서울특별시 서대문구 충정로2가 67-9,37.56519469,126.9622242,1998-05-29
대학원,경기대학교 관광전문대학원,본교,서울,사립,서울특별시 서대문구 경기대로9길 24,서울특별시 서대문구 충정로2가 67-9,37.56519469,126.9622242,1997-03-01
대학원,경기대학교 서비스경영전문대학원,본교,서울,사립,서울특별시 서대문구 경기대로9길 24,서울특별시 서대문구 충정로2가 67-9,37.56519469,126.9622242,1987-11-19
대학원,경기대학교 스포츠과학대학원,본교,경기,사립,경기도 수원시 영통구 광교산로 154-42,경기도 수원시 영통구 이의동 산 94-6,37.29801369,127.0331167,2001-03-01
대학원,경기대학교 대체의학대학원,본교,서울,사립,서울특별시 서대문구 경기대로9길 24,서울특별시 서대문구 충정로2가 67-9,37.56519469,126.9622242,2001-07-26
대학원,경기대학교 정치전문대학원,본교,서울,사립,서울특별시 서대문구 경기대로9길 24,서울특별시 서대문구 충정로2가 67-9,37.56519469,126.9622242,2002-03-01
대학원,경기대학교 국제ㆍ문화대학원,본교,서울,사립,서울특별시 서대문구 경기대로9길 24,서울특별시 서대문구 충정로2가 67-9,37.56519469,126.9622242,1996-03-01
대학원,경기대학교 미술・디자인대학원,본교,경기,사립,경기도 수원시 영통구 광교산로 154-42,경기도 수원시 영통구 이의동 산 94-6,37.29801369,127.0331167,2005-10-11
대학원,경기대학교 건설・산업대학원,본교,경기,사립,경기도 수원시 영통구 광교산로 154-42,경기도 수원시 영통구 이의동 산 94-6,37.29801369,127.0331167,2008-03-01
대학원,경남대학교 대학원,본교,경남,사립,경상남도 창원시 마산합포구 경남대학로 7,경상남도 창원시 마산합포구 월영동 449,35.18432093,128.5550964,1976-01-22
대학원,경남대학교 교육대학원,본교,경남,사립,경상남도 창원시 마산합포구 경남대학로 7,경상남도 창원시 마산합포구 월영동 449,35.18432093,128.5550964,1979-12-05
대학원,경남대학교 행정대학원,본교,경남,사립,경상남도 창원시 마산합포구 경남대학로 7,경상남도 창원시 마산합포구 월영동 449,35.18432093,128.5550964,1988-03-01
대학원,대구한의대학교 대학원,본교,경북,사립,경상북도 경산시 한의대로 1,경상북도 경산시 유곡동 290-1,35.79398805,128.7773243,1983-10-29
대학원,대구한의대학교 사회개발대학원,본교,경북,사립,경상북도 경산시 한의대로 1,경상북도 경산시 유곡동 290-1,35.79398805,128.7773243,2001-07-26
대학원,대구한의대학교 한방산업대학원,본교,경북,사립,경상북도 경산시 한의대로 1,경상북도 경산시 유곡동 290-1,35.79398805,128.7773243,2003-07-08
대학원,경성대학교 일반대학원,본교,부산,사립,부산광역시 남구 수영로 309,부산광역시 남구 대연동 산 37-1,35.13843836,129.100099,1983-10-29
대학원,경성대학교 경영대학원,본교,부산,사립,부산광역시 남구 수영로 309,부산광역시 남구 대연동 산 37-1,35.13843836,129.100099,1981-11-25
대학원,경성대학교 교육대학원,본교,부산,사립,부산광역시 남구 수영로 309,부산광역시 남구 대연동 산 37-1,35.13843836,129.100099,1987-11-09
대학원,경성대학교 사회복지대학원,본교,부산,사립,부산광역시 남구 수영로 309,부산광역시 남구 대연동 산 37-1,35.13843836,129.100099,1994-10-21
대학원,경성대학교 임상약학대학원,본교,부산,사립,부산광역시 남구 수영로 309,부산광역시 남구 대연동 산 37-1,35.13843836,129.100099,1997-10-25
대학원,경성대학교 디지털디자인전문대학원,본교,부산,사립,부산광역시 남구 수영로 309,부산광역시 남구 대연동 산 37-1,35.13843836,129.100099,2000-07-18
대학원,경성대학교 멀티미디어대학원,본교,부산,사립,부산광역시 남구 수영로 309,부산광역시 남구 대연동 산 37-1,35.13843836,129.100099,1984-11-27
대학원,가천대학교 일반대학원,본교,경기,사립,경기도 성남시 수정구 성남대로 1342,경기도 성남시 수정구 복정동 620-2,37.45123487,127.1293943,1939-05-09
대학원,가천대학교 경영대학원,본교,경기,사립,경기도 성남시 수정구 성남대로 1342,경기도 성남시 수정구 복정동 620-2,37.45123487,127.1293943,1939-05-09
대학원,가천대학교 교육대학원,본교,경기,사립,경기도 성남시 수정구 성남대로 1342,경기도 성남시 수정구 복정동 620-2,37.45123487,127.1293943,1939-05-09
대학원,가천대학교 보건대학원,본교,인천,사립,인천광역시 연수구 함박뫼로 191,인천광역시 연수구 연수동 534-2,37.42230155,126.687981,1939-05-09
대학원,가천대학교 사회정책대학원,본교,경기,사립,경기도 성남시 수정구 성남대로 1342,경기도 성남시 수정구 복정동 620-2,37.45123487,127.1293943,1939-05-09
대학원,가천대학교 소프트웨어대학원,본교,경기,사립,경기도 성남시 수정구 성남대로 1342,경기도 성남시 수정구 복정동 620-2,37.45123487,127.1293943,1939-05-09
대학원,가천대학교 간호대학원,본교,인천,사립,인천광역시 연수구 함박뫼로 191,인천광역시 연수구 연수동 534-2,37.42230155,126.687981,1939-05-09
대학원,가천대학교 특수치료대학원,본교,경기,사립,경기도 성남시 수정구 성남대로 1342,경기도 성남시 수정구 복정동 620-2,37.45123487,127.1293943,1939-05-09
대학원,가천대학교 의학전문대학원,본교,인천,사립,인천광역시 연수구 함박뫼로 191,인천광역시 연수구 연수동 534-2,37.42230155,126.687981,1939-05-09
대학원,가천대학교 환경・디자인대학원,본교,경기,사립,경기도 성남시 수정구 성남대로 1342,경기도 성남시 수정구 복정동 620-2,37.45123487,127.1293943,1939-05-09
대학원,경일대학교 일반대학원,본교,경북,사립,경상북도 경산시 하양읍 가마실길 50,경상북도 경산시 하양읍 부호리 33,35.91106895,128.8020451,1999-11-02
대학원,경일대학교 산업경영대학원,본교,경북,사립,경상북도 경산시 하양읍 가마실길 50,경상북도 경산시 하양읍 부호리 33,35.91106895,128.8020451,1989-11-15
대학원,경일대학교 산업대학원,본교,경북,사립,경상북도 경산시 하양읍 가마실길 50,경상북도 경산시 하양읍 부호리 33,35.91106895,128.8020451,1989-11-15
대학원,경일대학교 보건복지대학원,본교,경북,사립,경상북도 경산시 하양읍 가마실길 50,경상북도 경산시 하양읍 부호리 33,35.91106895,128.8020451,2010-10-14
대학원,신경주대학교 일반대학원,본교,경북,사립,경상북도 경주시 태종로 188,경상북도 경주시 효현동 670,35.82926585,129.1632394,1995-10-18
대학원,신경주대학교 교육대학원,본교,경북,사립,경상북도 경주시 태종로 188,경상북도 경주시 효현동 670,35.82926585,129.1632394,1999-11-19
대학원,신경주대학교 산업경영대학원,본교,경북,사립,경상북도 경주시 태종로 188,경상북도 경주시 효현동 670,35.82926585,129.1632394,1996-11-02
대학원,경희대학교 대학원,본교,서울,사립,서울특별시 동대문구 경희대로 26,서울특별시 동대문구 회기동 1-5,37.59394914,127.054891,1954-03-09
대학원,경희대학교 경영대학원,본교,서울,사립,서울특별시 동대문구 경희대로 26,서울특별시 동대문구 회기동 1-5,37.59394914,127.054891,1966-03-14
대학원,경희대학교 관광대학원,본교,서울,사립,서울특별시 동대문구 경희대로 26,서울특별시 동대문구 회기동 1-5,37.59394914,127.054891,1999-11-01
대학원,경희대학교 교육대학원,본교,서울,사립,서울특별시 동대문구 경희대로 26,서울특별시 동대문구 회기동 1-5,37.59394914,127.054891,1972-01-28
대학원,경희대학교 국제대학원,본교,경기,사립,경기도 용인시 기흥구 덕영대로 1732,경기도 용인시 기흥구 서천동 1,37.23980015,127.0811988,1997-12-22
대학원,경희대학교 국제법무대학원,본교,서울,사립,서울특별시 동대문구 경희대로 26,서울특별시 동대문구 회기동 1-5,37.59394914,127.054891,1996-03-04
대학원,경희대학교 언론정보대학원,본교,서울,사립,서울특별시 동대문구 경희대로 26,서울특별시 동대문구 회기동 1-5,37.59394914,127.054891,1989-03-01
대학원,경희대학교 테크노경영대학원,본교,경기,사립,경기도 용인시 기흥구 덕영대로 1732,경기도 용인시 기흥구 서천동 1,37.23980015,127.0811988,1987-11-09
대학원,경희대학교 평화복지대학원,본교,경기,사립,경기도 남양주시 진접읍 광릉수목원로 195,경기도 남양주시 진접읍 부평리 258-5,37.74978015,127.1864598,1984-09-25
대학원,경희대학교 행정대학원,본교,서울,사립,서울특별시 동대문구 경희대로 26,서울특별시 동대문구 회기동 1-5,37.59394914,127.054891,1980-11-24
대학원,경희대학교 체육대학원,본교,경기,사립,경기도 용인시 기흥구 덕영대로 1732,경기도 용인시 기흥구 서천동 1,37.23980015,127.0811988,2000-07-24
대학원,경희대학교 NGO대학원,본교,서울,사립,서울특별시 동대문구 경희대로 26,서울특별시 동대문구 회기동 1-5,37.59394914,127.054891,1999-11-01
대학원,경희대학교 동서의학대학원,본교,경기,사립,경기도 용인시 기흥구 덕영대로 1732,경기도 용인시 기흥구 서천동 1,37.23980015,127.0811988,1999-09-01
대학원,경희대학교 아트퓨전디자인대학원,본교,경기,사립,경기도 용인시 기흥구 덕영대로 1732,경기도 용인시 기흥구 서천동 1,37.23980015,127.0811988,2000-07-18
대학원,경희대학교 법학전문대학원,본교,서울,사립,서울특별시 동대문구 경희대로 26,서울특별시 동대문구 회기동 1-5,37.59394914,127.054891,2009-03-01
대학원,경희대학교 의학전문대학원,본교,서울,사립,서울특별시 동대문구 경희대로 26,서울특별시 동대문구 회기동 1-5,37.59394914,127.054891,2005-03-01
대학원,경희대학교 치의학전문대학원,본교,서울,사립,서울특별시 동대문구 경희대로 26,서울특별시 동대문구 회기동 1-5,37.59394914,127.054891,2005-03-01
대학원,경희대학교 공공대학원,본교,서울,사립,서울특별시 동대문구 경희대로 26,서울특별시 동대문구 회기동 1-5,37.59394914,127.054891,2011-03-01
대학원,계명대학교 대학원,본교,대구,사립,대구광역시 달서구 달구벌대로 1095,대구광역시 달서구 신당동 1000-2,35.85355435,128.4814938,1967-01-26
대학원,계명대학교 경영대학원,본교,대구,사립,대구광역시 달서구 달구벌대로 1095,대구광역시 달서구 신당동 1000-2,35.85355435,128.4814938,1979-12-05
대학원,계명대학교 교육대학원,본교,대구,사립,대구광역시 달서구 달구벌대로 1095,대구광역시 달서구 신당동 1000-2,35.85355435,128.4814938,1967-12-19
대학원,계명대학교 스포츠산업대학원,본교,대구,사립,대구광역시 달서구 달구벌대로 1095,대구광역시 달서구 신당동 1000-2,35.85355435,128.4814938,1996-11-02
대학원,계명대학교 연합신학대학원,본교,대구,사립,대구광역시 달서구 달구벌대로 1095,대구광역시 달서구 신당동 1000-2,35.85355435,128.4814938,1995-10-18
대학원,계명대학교 예술대학원,본교,대구,사립,대구광역시 달서구 달구벌대로 1095,대구광역시 달서구 신당동 1000-2,35.85355435,128.4814938,1995-10-18
대학원,계명대학교 정책대학원,본교,대구,사립,대구광역시 남구 명덕로 104,대구광역시 남구 대명동 2139-11,35.85552317,128.5793157,1988-11-30
대학원,계명대학교 유아교육대학원,본교,대구,사립,대구광역시 달서구 달구벌대로 1095,대구광역시 달서구 신당동 1000-2,35.85355435,128.4814938,2000-07-18
대학원,고려대학교 대학원,본교,서울,사립,서울특별시 성북구 안암로 145,서울특별시 성북구 안암동5가 1-2,37.58649222,127.0309796,1949-09-01
대학원,고려대학교(세종) 일반대학원,분교,세종,사립,세종특별자치시 조치원읍 세종로 2511,세종특별자치시 조치원읍 서창리 208,36.61169462,127.2910027,1949-09-01
대학원,고려대학교(세종) 경영정보대학원,분교,세종,사립,세종특별자치시 조치원읍 세종로 2511,세종특별자치시 조치원읍 서창리 208,36.61169462,127.2910027,1988-10-01
대학원,고려대학교 교육대학원,본교,서울,사립,서울특별시 성북구 안암로 145,서울특별시 성북구 안암동5가 1-2,37.58649222,127.0309796,1967-12-01
대학원,고려대학교 국제대학원,본교,서울,사립,서울특별시 성북구 안암로 145,서울특별시 성북구 안암동5가 1-2,37.58649222,127.0309796,1991-11-16
대학원,고려대학교 노동대학원,본교,서울,사립,서울특별시 성북구 안암로 145,서울특별시 성북구 안암동5가 1-2,37.58649222,127.0309796,1994-10-21
대학원,고려대학교 법무대학원,본교,서울,사립,서울특별시 성북구 안암로 145,서울특별시 성북구 안암동5가 1-2,37.58649222,127.0309796,1996-03-01
대학원,고려대학교 보건대학원,본교,서울,사립,서울특별시 성북구 고려대로 73,서울특별시 성북구 안암동5가 126-1,37.58711097,127.0263572,1999-11-02
대학원,고려대학교 언론대학원,본교,서울,사립,서울특별시 성북구 안암로 145,서울특별시 성북구 안암동5가 1-2,37.58649222,127.0309796,1992-07-28
대학원,고려대학교(세종) 인문정보대학원,분교,세종,사립,세종특별자치시 조치원읍 세종로 2511,세종특별자치시 조치원읍 서창리 208,36.61169462,127.2910027,1997-10-25
대학원,고려대학교 정책대학원,본교,서울,사립,서울특별시 성북구 안암로 145,서울특별시 성북구 안암동5가 1-2,37.58649222,127.0309796,1986-11-29
대학원,고려대학교(세종) 행정대학원,분교,세종,사립,세종특별자치시 조치원읍 세종로 2511,세종특별자치시 조치원읍 서창리 208,36.61169462,127.2910027,1997-10-25
대학원,고려대학교 임상치의학대학원,본교,서울,사립,서울특별시 성북구 고려대로 73,서울특별시 성북구 안암동5가 126-1,37.58711097,127.0263572,1999-11-02
대학원,고려대학교 컴퓨터정보통신대학원,본교,서울,사립,서울특별시 성북구 안암로 145,서울특별시 성북구 안암동5가 1-2,37.58649222,127.0309796,1995-10-18
대학원,고려대학교(세종) 의용과학대학원,분교,세종,사립,세종특별자치시 조치원읍 세종로 2511,세종특별자치시 조치원읍 서창리 208,36.61169462,127.2910027,1999-11-02
대학원,고려대학교 정보보호대학원,본교,서울,사립,서울특별시 성북구 안암로 145,서울특별시 성북구 안암동5가 1-2,37.58649222,127.0309796,2006-09-01
대학원,고려대학교 경영전문대학원,본교,서울,사립,서울특별시 성북구 안암로 145,서울특별시 성북구 안암동5가 1-2,37.58649222,127.0309796,1963-11-18
대학원,고려대학교 공학대학원,본교,서울,사립,서울특별시 성북구 안암로 145,서울특별시 성북구 안암동5가 1-2,37.58649222,127.0309796,1987-11-01
대학원,고려대학교 법학전문대학원,본교,서울,사립,서울특별시 성북구 안암로 145,서울특별시 성북구 안암동5가 1-2,37.58649222,127.0309796,2009-03-01
대학원,고려대학교 생명환경과학대학원,본교,서울,사립,서울특별시 성북구 안암로 145,서울특별시 성북구 안암동5가 1-2,37.58649222,127.0309796,1977-01-03
대학원,고려대학교 의학전문대학원,본교,서울,사립,서울특별시 성북구 안암로 145,서울특별시 성북구 안암동5가 1-2,37.58649222,127.0309796,2009-03-01
대학원,고려대학교 정보경영공학전문대학원,본교,서울,사립,서울특별시 성북구 안암로 145,서울특별시 성북구 안암동5가 1-2,37.58649222,127.0309796,2006-09-01
대학원,고려대학교 융합소프트웨어전문대학원,본교,서울,사립,서울특별시 성북구 안암로 145,서울특별시 성북구 안암동5가 1-2,37.58649222,127.0309796,2010-03-01
대학원,고려대학교 그린스쿨(에너지환경정책기술대학원),본교,서울,사립,서울특별시 성북구 안암로 145,서울특별시 성북구 안암동5가 1-2,37.58649222,127.0309796,2010-03-01
대학원,고려대학교 기술경영전문대학원,본교,서울,사립,서울특별시 성북구 안암로 145,서울특별시 성북구 안암동5가 1-2,37.58649222,127.0309796,2011-03-01
대학원,고신대학교 대학원,본교,부산,사립,부산광역시 영도구 와치로 194,부산광역시 영도구 동삼동 516-36,35.07946942,129.0621819,1978-03-02
대학원,고신대학교 교육대학원,본교,부산,사립,부산광역시 영도구 와치로 194,부산광역시 영도구 동삼동 516-36,35.07946942,129.0621819,1999-11-01
대학원,고신대학교 교회음악대학원,본교,부산,사립,부산광역시 영도구 와치로 194,부산광역시 영도구 동삼동 516-36,35.07946942,129.0621819,2007-03-01
대학원,고신대학교 보건대학원,본교,부산,사립,부산광역시 서구 감천로 262,부산광역시 서구 암남동 14-8,35.08107807,129.0145128,1993-09-04
대학원,고신대학교 신학대학원,본교,충남,사립,충청남도 천안시 동남구 충절로 535-31,충청남도 천안시 동남구 삼룡동 40-1,36.77721382,127.1813824,1980-11-03
대학원,고신대학교 기독교상담대학원,본교,부산,사립,부산광역시 영도구 와치로 194,부산광역시 영도구 동삼동 516-36,35.07946942,129.0621819,2007-03-01
대학원,고신대학교 선교목회대학원,본교,부산,사립,부산광역시 영도구 와치로 194,부산광역시 영도구 동삼동 516-36,35.07946942,129.0621819,1997-10-01
대학원,가톨릭관동대학교 일반대학원,본교,강원,사립,강원특별자치도 강릉시 범일로579번길 24,강원특별자치도 강릉시 내곡동 522,37.73732878,128.8737046,1989-03-01
대학원,가톨릭관동대학교 경영행정・사회복지대학원,본교,강원,사립,강원특별자치도 강릉시 범일로579번길 24,강원특별자치도 강릉시 내곡동 522,37.73732878,128.8737046,1990-03-01
대학원,가톨릭관동대학교 교육대학원,본교,강원,사립,강원특별자치도 강릉시 범일로579번길 24,강원특별자치도 강릉시 내곡동 522,37.73732878,128.8737046,1988-03-01
대학원,가톨릭관동대학교 선교신학대학원,본교,강원,사립,강원특별자치도 강릉시 범일로579번길 24,강원특별자치도 강릉시 내곡동 522,37.73732878,128.8737046,2003-03-01
대학원,광신대학교 대학원,본교,광주,사립,광주광역시 북구 양산택지소로 36,광주광역시 북구 본촌동 130,35.21603426,126.8848545,2002-10-30
대학원,광신대학교 교육대학원,본교,광주,사립,광주광역시 북구 양산택지소로 36,광주광역시 북구 본촌동 130,35.21603426,126.8848545,2002-11-12
대학원,광신대학교 국제대학원,본교,광주,사립,광주광역시 북구 양산택지소로 36,광주광역시 북구 본촌동 130,35.21603426,126.8848545,2006-07-25
대학원,광신대학교 사회복지대학원,본교,광주,사립,광주광역시 북구 양산택지소로 36,광주광역시 북구 본촌동 130,35.21603426,126.8848545,2006-07-25
대학원,광신대학교 신학대학원,본교,광주,사립,광주광역시 북구 양산택지소로 36,광주광역시 북구 본촌동 130,35.21603426,126.8848545,1999-11-02
대학원,광신대학교 상담치료대학원,본교,광주,사립,광주광역시 북구 양산택지소로 36,광주광역시 북구 본촌동 130,35.21603426,126.8848545,2005-10-12
대학원,광운대학교 대학원,본교,서울,사립,서울특별시 노원구 광운로 20,서울특별시 노원구 월계동 447-1,37.61932035,127.0583381,1979-12-05
대학원,광운대학교 경영대학원,본교,서울,사립,서울특별시 노원구 광운로 20,서울특별시 노원구 월계동 447-1,37.61932035,127.0583381,1988-10-29
대학원,광운대학교 교육대학원,본교,서울,사립,서울특별시 노원구 광운로 20,서울특별시 노원구 월계동 447-1,37.61932035,127.0583381,1999-11-19
대학원,광운대학교 환경대학원,본교,서울,사립,서울특별시 노원구 광운로 20,서울특별시 노원구 월계동 447-1,37.61932035,127.0583381,1984-11-27
대학원,광운대학교 건설법무대학원,본교,서울,사립,서울특별시 노원구 광운로 20,서울특별시 노원구 월계동 447-1,37.61932035,127.0583381,2006-10-27
대학원,광운대학교 상담복지정책대학원,본교,서울,사립,서울특별시 노원구 광운로 20,서울특별시 노원구 월계동 447-1,37.61932035,127.0583381,2001-02-09
대학원,광운대학교 정보콘텐츠대학원,본교,서울,사립,서울특별시 노원구 광운로 20,서울특별시 노원구 월계동 447-1,37.61932035,127.0583381,1980-11-08
대학원,광주가톨릭대학교 대학원,본교,전남,사립,전라남도 나주시 남평읍 중남길 12-25,전라남도 나주시 남평읍 남석리 산 67-1,35.01543518,126.8638867,1965-01-13
대학원,광주여자대학교 일반대학원,본교,광주,사립,광주광역시 광산구 광주여대길 45,광주광역시 광산구 산정동 산 105-1,35.16268099,126.7953712,1997-03-03
대학원,광주여자대학교 교육대학원,본교,광주,사립,광주광역시 광산구 광주여대길 45,광주광역시 광산구 산정동 산 105-1,35.16268099,126.7953712,1997-03-03
대학원,광주여자대학교 사회개발대학원,본교,광주,사립,광주광역시 광산구 광주여대길 45,광주광역시 광산구 산정동 산 105-1,35.16268099,126.7953712,1997-03-03
대학원,국민대학교 대학원,본교,서울,사립,서울특별시 성북구 정릉로 77,서울특별시 성북구 정릉동 861-1,37.61028784,126.9985206,1976-01-22
대학원,국민대학교 경영대학원,본교,서울,사립,서울특별시 성북구 정릉로 77,서울특별시 성북구 정릉동 861-1,37.61028784,126.9985206,1981-10-01
대학원,국민대학교 교육대학원,본교,서울,사립,서울특별시 성북구 정릉로 77,서울특별시 성북구 정릉동 861-1,37.61028784,126.9985206,1981-03-01
대학원,국민대학교 디자인대학원,본교,서울,사립,서울특별시 성북구 정릉로 77,서울특별시 성북구 정릉동 861-1,37.61028784,126.9985206,1994-03-01
대학원,국민대학교 법무대학원,본교,서울,사립,서울특별시 성북구 정릉로 77,서울특별시 성북구 정릉동 861-1,37.61028784,126.9985206,1998-02-01
대학원,국민대학교 스포츠산업대학원,본교,서울,사립,서울특별시 성북구 정릉로 77,서울특별시 성북구 정릉동 861-1,37.61028784,126.9985206,1996-03-01
대학원,국민대학교 정치대학원,본교,서울,사립,서울특별시 성북구 정릉로 77,서울특별시 성북구 정릉동 861-1,37.61028784,126.9985206,1995-03-01
대학원,국민대학교 행정대학원,본교,서울,사립,서울특별시 성북구 정릉로 77,서울특별시 성북구 정릉동 861-1,37.61028784,126.9985206,1984-03-01
대학원,국민대학교 자동차공학전문대학원,본교,서울,사립,서울특별시 성북구 정릉로 77,서울특별시 성북구 정릉동 861-1,37.61028784,126.9985206,1998-03-01
대학원,국민대학교 테크노디자인전문대학원,본교,서울,사립,서울특별시 성북구 정릉로 77,서울특별시 성북구 정릉동 861-1,37.61028784,126.9985206,1999-09-01
대학원,국민대학교 공학대학원,본교,서울,사립,서울특별시 성북구 정릉로 77,서울특별시 성북구 정릉동 861-1,37.61028784,126.9985206,1993-03-01
대학원,국민대학교 비즈니스IT전문대학원,본교,서울,사립,서울특별시 성북구 정릉로 77,서울특별시 성북구 정릉동 861-1,37.61028784,126.9985206,2002-03-01
대학원,국민대학교 종합예술대학원,본교,서울,사립,서울특별시 성북구 정릉로 77,서울특별시 성북구 정릉동 861-1,37.61028784,126.9985206,2002-03-01
대학원,강서대학교 일반대학원,본교,서울,사립,서울특별시 강서구 까치산로24길 47,서울특별시 강서구 화곡동 953-1,37.54868531,126.8541565,2002-10-30
대학원,강서대학교 교육대학원,본교,서울,사립,서울특별시 강서구 까치산로24길 47,서울특별시 강서구 화곡동 953-1,37.54868531,126.8541565,2002-10-30
대학원,강서대학교 사회복지대학원,본교,서울,사립,서울특별시 강서구 까치산로24길 47,서울특별시 강서구 화곡동 953-1,37.54868531,126.8541565,2002-10-30
대학원,강서대학교 신학대학원,본교,서울,사립,서울특별시 강서구 까치산로24길 47,서울특별시 강서구 화곡동 953-1,37.54868531,126.8541565,1994-10-21
대학원,극동대학교 일반대학원,본교,충북,사립,충청북도 음성군 감곡면 대학길 76-32,충청북도 음성군 감곡면 왕장리 234-4,37.12825493,127.641871,2001-03-02
대학원,극동대학교 교육대학원,본교,충북,사립,충청북도 음성군 감곡면 대학길 76-32,충청북도 음성군 감곡면 왕장리 234-4,37.12825493,127.641871,2000-03-02
대학원,극동대학교 보건과학대학원,본교,충북,사립,충청북도 음성군 감곡면 대학길 76-32,충청북도 음성군 감곡면 왕장리 234-4,37.12825493,127.641871,2010-03-02
대학원,극동대학교 글로벌대학원,본교,충북,사립,충청북도 음성군 감곡면 대학길 76-32,충청북도 음성군 감곡면 왕장리 234-4,37.12825493,127.641871,2011-03-02
대학원,극동대학교 국제개발대학원,본교,충북,사립,충청북도 음성군 감곡면 대학길 76-32,충청북도 음성군 감곡면 왕장리 234-4,37.12825493,127.641871,2012-03-02
대학원,나사렛대학교 일반대학원,본교,충남,사립,충청남도 천안시 서북구 월봉로 48,충청남도 천안시 서북구 쌍용동 456,36.79834753,127.1194779,2009-03-01
대학원,나사렛대학교 교육대학원,본교,충남,사립,충청남도 천안시 서북구 월봉로 48,충청남도 천안시 서북구 쌍용동 456,36.79834753,127.1194779,2001-03-01
대학원,나사렛대학교 신학대학원,본교,충남,사립,충청남도 천안시 서북구 월봉로 48,충청남도 천안시 서북구 쌍용동 456,36.79834753,127.1194779,1954-09-14
대학원,나사렛대학교 재활복지대학원,본교,충남,사립,충청남도 천안시 서북구 월봉로 48,충청남도 천안시 서북구 쌍용동 456,36.79834753,127.1194779,1954-09-14
대학원,단국대학교 일반대학원,본교,경기,사립,경기도 용인시 수지구 죽전로 152,경기도 용인시 수지구 죽전동 1491,37.32119387,127.1325359,1958-08-29
대학원,단국대학교 경영대학원,본교,경기,사립,경기도 용인시 수지구 죽전로 152,경기도 용인시 수지구 죽전동 1491,37.32119387,127.1325359,1978-12-30
대학원,단국대학교 교육대학원,본교,경기,사립,경기도 용인시 수지구 죽전로 152,경기도 용인시 수지구 죽전동 1491,37.32119387,127.1325359,1980-11-03
대학원,단국대학교 문화예술대학원,본교,경기,사립,경기도 용인시 수지구 죽전로 152,경기도 용인시 수지구 죽전동 1491,37.32119387,127.1325359,2000-07-18
대학원,단국대학교 특수교육대학원,본교,경기,사립,경기도 용인시 수지구 죽전로 152,경기도 용인시 수지구 죽전동 1491,37.32119387,127.1325359,1998-03-01
대학원,단국대학교 행정법무대학원,본교,경기,사립,경기도 용인시 수지구 죽전로 152,경기도 용인시 수지구 죽전동 1491,37.32119387,127.1325359,1980-11-03
대학원,단국대학교 부동산・건설대학원,본교,경기,사립,경기도 용인시 수지구 죽전로 152,경기도 용인시 수지구 죽전동 1491,37.32119387,127.1325359,2006-10-20
대학원,단국대학교 영화콘텐츠전문대학원,본교,경기,사립,경기도 용인시 수지구 죽전로 152,경기도 용인시 수지구 죽전동 1491,37.32119387,127.1325359,2012-03-01
대학원,대구대학교 대학원,본교,경북,사립,경상북도 경산시 진량읍 대구대로 201,경상북도 경산시 진량읍 내리리 15,35.90453897,128.8428133,1973-01-09
대학원,대구대학교 교육대학원,본교,경북,사립,경상북도 경산시 진량읍 대구대로 201,경상북도 경산시 진량읍 내리리 15,35.90453897,128.8428133,1983-10-29
대학원,대구대학교 디자인대학원,본교,경북,사립,경상북도 경산시 진량읍 대구대로 201,경상북도 경산시 진량읍 내리리 15,35.90453897,128.8428133,2001-07-26
대학원,대구대학교 사회복지대학원,본교,경북,사립,경상북도 경산시 진량읍 대구대로 201,경상북도 경산시 진량읍 내리리 15,35.90453897,128.8428133,1981-11-25
대학원,대구대학교 재활과학대학원,본교,대구,사립,대구광역시 남구 성당로50길 33,대구광역시 남구 대명동 2288,35.85594503,128.5750718,1991-11-15
대학원,대구대학교 특수교육대학원,본교,경북,사립,경상북도 경산시 진량읍 대구대로 201,경상북도 경산시 진량읍 내리리 15,35.90453897,128.8428133,1997-11-01
대학원,대구대학교 산업・행정대학원,본교,대구,사립,대구광역시 남구 성당로50길 33,대구광역시 남구 대명동 2288,35.85594503,128.5750718,2001-07-26
대학원,대구가톨릭대학교 대학원,본교,경북,사립,경상북도 경산시 하양읍 하양로 13-13,경상북도 경산시 하양읍 금락리 산 35,35.90896711,128.807422,1995-03-01
대학원,대구가톨릭대학교 경영대학원,본교,대구,사립,대구광역시 중구 명륜로12길 47,대구광역시 중구 남산동 219,35.8613082,128.5874828,1995-03-01
대학원,대구가톨릭대학교 교육대학원,본교,경북,사립,경상북도 경산시 하양읍 하양로 13-13,경상북도 경산시 하양읍 금락리 산 35,35.90896711,128.807422,1989-11-06
대학원,대구가톨릭대학교 디자인대학원,본교,대구,사립,대구광역시 중구 명륜로12길 47,대구광역시 중구 남산동 219,35.8613082,128.5874828,1996-11-02
대학원,대구가톨릭대학교 사회복지대학원,본교,대구,사립,대구광역시 중구 명륜로12길 47,대구광역시 중구 남산동 219,35.8613082,128.5874828,1996-11-02
대학원,대구가톨릭대학교 신학대학원,본교,대구,사립,대구광역시 중구 명륜로12길 47,대구광역시 중구 남산동 219,35.8613082,128.5874828,2003-10-30
대학원,세한대학교 일반대학원,본교,전남,사립,전라남도 영암군 삼호읍 녹색로 1113,전라남도 영암군 삼호읍 산호리 280-1,34.74537742,126.483264,2000-03-06
대학원,세한대학교 경영행정대학원,본교,전남,사립,전라남도 영암군 삼호읍 녹색로 1113,전라남도 영암군 삼호읍 산호리 280-1,34.74537742,126.483264,1998-03-05
대학원,세한대학교 교육대학원,본교,전남,사립,전라남도 영암군 삼호읍 녹색로 1113,전라남도 영암군 삼호읍 산호리 280-1,34.74537742,126.483264,2000-03-06
대학원,세한대학교 보건대학원,본교,전남,사립,전라남도 영암군 삼호읍 녹색로 1113,전라남도 영암군 삼호읍 산호리 280-1,34.74537742,126.483264,2001-03-01
대학원,세한대학교 산업기술대학원,본교,전남,사립,전라남도 영암군 삼호읍 녹색로 1113,전라남도 영암군 삼호읍 산호리 280-1,34.74537742,126.483264,1998-03-05
대학원,대신대학교 대학원,본교,경북,사립,경상북도 경산시 경청로222길 33,경상북도 경산시 백천동 137,35.80394479,128.7451373,2001-07-26
대학원,대신대학교 신학대학원,본교,경북,사립,경상북도 경산시 경청로222길 33,경상북도 경산시 백천동 137,35.80394479,128.7451373,2000-07-18
대학원,대전가톨릭대학교 대학원,본교,세종,사립,세종특별자치시 전의면 가톨릭대학로 30,세종특별자치시 전의면 신방리 263-3,36.6545677,127.1970103,1993-03-01
대학원,대전대학교 일반대학원,본교,대전,사립,대전광역시 동구 대학로 62,대전광역시 동구 용운동 96-3,36.33669617,127.4590019,1987-11-09
대학원,대전대학교 교육대학원,본교,대전,사립,대전광역시 서구 대덕대로176번길 59,대전광역시 서구 둔산동 1135,36.34686995,127.3791958,1999-11-19
대학원,대전대학교 경영행정・사회복지대학원,본교,대전,사립,대전광역시 서구 대덕대로176번길 59,대전광역시 서구 둔산동 1135,36.34686995,127.3791958,2002-10-30
대학원,대진대학교 대학원,본교,경기,사립,경기도 포천시 호국로 1007,경기도 포천시 선단동 산 11-1,37.87381021,127.1575541,1995-10-18
대학원,대진대학교 교육대학원,본교,경기,사립,경기도 포천시 호국로 1007,경기도 포천시 선단동 산 11-1,37.87381021,127.1575541,1995-10-23
대학원,대진대학교 법무행정대학원,본교,경기,사립,경기도 포천시 호국로 1007,경기도 포천시 선단동 산 11-1,37.87381021,127.1575541,1996-11-02
대학원,대진대학교 통일대학원,본교,경기,사립,경기도 포천시 호국로 1007,경기도 포천시 선단동 산 11-1,37.87381021,127.1575541,2001-07-26
대학원,대진대학교 문화예술전문대학원,본교,경기,사립,경기도 포천시 호국로 1007,경기도 포천시 선단동 산 11-1,37.87381021,127.1575541,2002-11-01
대학원,서울기독대학교 대학원,본교,서울,사립,서울특별시 은평구 갈현로4길 26-2,서울특별시 은평구 신사동 1-19,37.60075686,126.9121924,2000-10-01
대학원,서울기독대학교 사회복지대학원,본교,서울,사립,서울특별시 은평구 갈현로4길 26-2,서울특별시 은평구 신사동 1-19,37.60075686,126.9121924,2001-09-01
대학원,서울기독대학교 신학전문대학원,본교,서울,사립,서울특별시 은평구 갈현로4길 26-2,서울특별시 은평구 신사동 1-19,37.60075686,126.9121924,2001-09-01
대학원,서울기독대학교 치유상담대학원,본교,서울,사립,서울특별시 은평구 갈현로4길 26-2,서울특별시 은평구 신사동 1-19,37.60075686,126.9121924,2002-10-01
대학원,덕성여자대학교 대학원,본교,서울,사립,서울특별시 도봉구 삼양로144길 33,서울특별시 도봉구 쌍문동 419,37.64950908,127.0163952,1979-12-05
대학원,덕성여자대학교 교육대학원,본교,서울,사립,서울특별시 종로구 삼일대로 460,서울특별시 종로구 운니동 114-7,37.57663053,126.9881575,1996-10-30
대학원,덕성여자대학교 문화산업대학원,본교,서울,사립,서울특별시 종로구 삼일대로 460,서울특별시 종로구 운니동 114-7,37.57663053,126.9881575,2009-03-01
대학원,동국대학교 대학원,본교,서울,사립,서울특별시 중구 필동로1길 30,서울특별시 중구 필동3가 26-1,37.55893664,126.9987376,1953-02-06
대학원,동국대학교(WISE) 일반대학원,분교,경북,사립,경상북도 경주시 동대로 123,경상북도 경주시 석장동 707,35.86479385,129.1910309,1953-02-06
대학원,동국대학교 경영대학원,본교,서울,사립,서울특별시 중구 필동로1길 30,서울특별시 중구 필동3가 26-1,37.55893664,126.9987376,1973-01-09
대학원,동국대학교 교육대학원,본교,서울,사립,서울특별시 중구 필동로1길 30,서울특별시 중구 필동3가 26-1,37.55893664,126.9987376,1978-12-30
대학원,동국대학교 국제정보대학원,본교,서울,사립,서울특별시 중구 필동로1길 30,서울특별시 중구 필동3가 26-1,37.55893664,126.9987376,1997-10-25
대학원,동국대학교 문화예술대학원,본교,서울,사립,서울특별시 중구 필동로1길 30,서울특별시 중구 필동3가 26-1,37.55893664,126.9987376,1994-10-21
대학원,동국대학교 법무대학원,본교,서울,사립,서울특별시 중구 필동로1길 30,서울특별시 중구 필동3가 26-1,37.55893664,126.9987376,2009-03-02
대학원,동국대학교 불교대학원,본교,서울,사립,서울특별시 중구 필동로1길 30,서울특별시 중구 필동3가 26-1,37.55893664,126.9987376,1990-11-09
대학원,동국대학교(WISE) 사회과학대학원,분교,경북,사립,경상북도 경주시 동대로 123,경상북도 경주시 석장동 707,35.86479385,129.1910309,1989-03-01
대학원,동국대학교(WISE) 경영대학원,분교,경북,사립,경상북도 경주시 동대로 123,경상북도 경주시 석장동 707,35.86479385,129.1910309,2009-03-01
대학원,동국대학교 산업대학원,본교,서울,사립,서울특별시 중구 필동로1길 30,서울특별시 중구 필동3가 26-1,37.55893664,126.9987376,1991-11-15
대학원,동국대학교 언론정보대학원,본교,서울,사립,서울특별시 중구 필동로1길 30,서울특별시 중구 필동3가 26-1,37.55893664,126.9987376,1987-11-09
대학원,동국대학교 행정대학원,본교,서울,사립,서울특별시 중구 필동로1길 30,서울특별시 중구 필동3가 26-1,37.55893664,126.9987376,1906-05-08
대학원,동국대학교 영상대학원(전문),본교,서울,사립,서울특별시 중구 필동로1길 30,서울특별시 중구 필동3가 26-1,37.55893664,126.9987376,2001-03-02
대학원,동국대학교 영상정보통신대학원,본교,서울,사립,서울특별시 중구 필동로1길 30,서울특별시 중구 필동3가 26-1,37.55893664,126.9987376,2001-03-02
대학원,동국대학교(WISE) 불교문화대학원,분교,경북,사립,경상북도 경주시 동대로 123,경상북도 경주시 석장동 707,35.86479385,129.1910309,2000-07-18
대학원,동국대학교 경영전문대학원,본교,서울,사립,서울특별시 중구 필동로1길 30,서울특별시 중구 필동3가 26-1,37.55893664,126.9987376,2007-02-27
대학원,동국대학교(WISE) 의학전문대학원,분교,경북,사립,경상북도 경주시 동대로 123,경상북도 경주시 석장동 707,35.86479385,129.1910309,2009-03-01
대학원,동국대학교 경찰사법대학원,본교,서울,사립,서울특별시 중구 필동로1길 30,서울특별시 중구 필동3가 26-1,37.55893664,126.9987376,2011-03-02
대학원,동덕여자대학교 일반대학원,본교,서울,사립,서울특별시 성북구 화랑로13길 60,서울특별시 성북구 하월곡동 23-1,37.60681483,127.0411763,1980-10-01
대학원,동덕여자대학교 교육대학원,본교,서울,사립,서울특별시 성북구 화랑로13길 60,서울특별시 성북구 하월곡동 23-1,37.60681483,127.0411763,1997-03-01
대학원,동덕여자대학교 디자인대학원,본교,서울,사립,서울특별시 성북구 화랑로13길 60,서울특별시 성북구 하월곡동 23-1,37.60681483,127.0411763,1995-10-01
대학원,동덕여자대학교 공연예술대학원,본교,서울,사립,서울특별시 성북구 화랑로13길 60,서울특별시 성북구 하월곡동 23-1,37.60681483,127.0411763,2000-03-01
대학원,동덕여자대학교 패션전문대학원,본교,서울,사립,서울특별시 성북구 화랑로13길 60,서울특별시 성북구 하월곡동 23-1,37.60681483,127.0411763,2000-03-01
대학원,동덕여자대학교 미용보건대학원,본교,서울,사립,서울특별시 성북구 화랑로13길 60,서울특별시 성북구 하월곡동 23-1,37.60681483,127.0411763,2006-03-01
대학원,동덕여자대학교 국제문화대학원,본교,서울,사립,서울특별시 성북구 화랑로13길 60,서울특별시 성북구 하월곡동 23-1,37.60681483,127.0411763,2007-03-01
대학원,동덕여자대학교 비만미용향장대학원,본교,서울,사립,서울특별시 성북구 화랑로13길 60,서울특별시 성북구 하월곡동 23-1,37.60681483,127.0411763,2007-03-01
대학원,동덕여자대학교 문화산업예술대학원,본교,서울,사립,서울특별시 성북구 화랑로13길 60,서울특별시 성북구 하월곡동 23-1,37.60681483,127.0411763,1980-10-01
대학원,동서대학교 일반대학원,본교,부산,사립,부산광역시 사상구 주례로 47,부산광역시 사상구 주례동 88,35.14611992,129.0070172,1996-03-01
대학원,동서대학교 디자인전문대학원,본교,부산,사립,부산광역시 사상구 주례로 47,부산광역시 사상구 주례동 88,35.14611992,129.0070172,2005-11-28
대학원,동서대학교 선교복지대학원,본교,부산,사립,부산광역시 사상구 주례로 47,부산광역시 사상구 주례동 88,35.14611992,129.0070172,2004-09-01
대학원,동서대학교 경영대학원,본교,부산,사립,부산광역시 사상구 주례로 47,부산광역시 사상구 주례동 88,35.14611992,129.0070172,2006-03-01
대학원,동신대학교 대학원,본교,전남,사립,전라남도 나주시 건재로 182,전라남도 나주시 대호동 49-33,35.04965136,126.721023,1991-11-15
대학원,동신대학교 교육대학원,본교,전남,사립,전라남도 나주시 건재로 182,전라남도 나주시 대호동 49-33,35.04965136,126.721023,1999-11-19
대학원,동신대학교 사회개발대학원,본교,전남,사립,전라남도 나주시 건재로 182,전라남도 나주시 대호동 49-33,35.04965136,126.721023,1996-12-02
대학원,동아대학교 대학원,본교,부산,사립,부산광역시 사하구 낙동대로550번길 37,부산광역시 사하구 하단동 840,35.11880939,128.968085,1958-10-01
대학원,동아대학교 경영대학원,본교,부산,사립,부산광역시 서구 구덕로 225,부산광역시 서구 부민동2가 1,35.10374099,129.0194146,1969-02-04
대학원,동아대학교 교육대학원,본교,부산,사립,부산광역시 사하구 낙동대로550번길 37,부산광역시 사하구 하단동 840,35.11880939,128.968085,1973-01-09
대학원,동아대학교 법무대학원,본교,부산,사립,부산광역시 서구 구덕로 225,부산광역시 서구 부민동2가 1,35.10374099,129.0194146,2000-07-18
대학원,동아대학교 사회복지대학원,본교,부산,사립,부산광역시 서구 구덕로 225,부산광역시 서구 부민동2가 1,35.10374099,129.0194146,1996-11-02
대학원,동아대학교 산업정보대학원,본교,부산,사립,부산광역시 사하구 낙동대로 550,부산광역시 사하구 하단동 800-15,35.11319064,128.9641333,2004-07-27
대학원,동아대학교 문화예술대학원,본교,부산,사립,부산광역시 서구 대신공원로 32,부산광역시 서구 동대신동3가 1-42,35.12099471,129.017549,2001-07-26
대학원,동아대학교 경찰법무대학원,본교,부산,사립,부산광역시 서구 구덕로 225,부산광역시 서구 부민동2가 1,35.10374099,129.0194146,2000-07-18
대학원,동아대학교 법학전문대학원,본교,부산,사립,부산광역시 서구 구덕로 225,부산광역시 서구 부민동2가 1,35.10374099,129.0194146,2008-09-02
대학원,동아대학교 의학전문대학원,본교,부산,사립,부산광역시 서구 대신공원로 32,부산광역시 서구 동대신동3가 1-42,35.12099471,129.017549,2006-02-16
대학원,동양대학교 일반대학원,본교,경북,사립,경상북도 영주시 풍기읍 동양대로 145,경상북도 영주시 풍기읍 산법리 574,36.88580302,128.5297793,1999-11-02
대학원,동양대학교 교육대학원,본교,경북,사립,경상북도 영주시 풍기읍 동양대로 145,경상북도 영주시 풍기읍 산법리 574,36.88580302,128.5297793,1999-11-19
대학원,동양대학교 정보대학원,본교,경북,사립,경상북도 영주시 풍기읍 동양대로 145,경상북도 영주시 풍기읍 산법리 574,36.88580302,128.5297793,1997-10-25
대학원,동의대학교 대학원,본교,부산,사립,부산광역시 부산진구 엄광로 176,부산광역시 부산진구 가야동 467,35.14432081,129.0363092,1983-10-29
대학원,동의대학교 경영대학원,본교,부산,사립,부산광역시 부산진구 엄광로 176,부산광역시 부산진구 가야동 467,35.14432081,129.0363092,1999-11-02
대학원,동의대학교 교육대학원,본교,부산,사립,부산광역시 부산진구 엄광로 176,부산광역시 부산진구 가야동 467,35.14432081,129.0363092,1999-11-19
대학원,동의대학교 행정대학원,본교,부산,사립,부산광역시 부산진구 엄광로 176,부산광역시 부산진구 가야동 467,35.14432081,129.0363092,1984-11-27
대학원,동의대학교 영상정보대학원,본교,부산,사립,부산광역시 부산진구 엄광로 176,부산광역시 부산진구 가야동 467,35.14432081,129.0363092,2000-07-18
대학원,루터대학교 대학원,본교,경기,사립,경기도 용인시 기흥구 금화로82번길 20,경기도 용인시 기흥구 상갈동 17,37.26443438,127.1133734,2002-10-30
대학원,명지대학교 대학원,본교,경기,사립,경기도 용인시 처인구 명지로 116,경기도 용인시 처인구 남동 555,37.22180726,127.1901837,1968-03-01
대학원,명지대학교 경영대학원,제2캠퍼스,서울,사립,서울특별시 서대문구 거북골로 34,서울특별시 서대문구 남가좌동 50-3,37.58037702,126.9213485,2012-03-01
대학원,명지대학교 교육대학원,제2캠퍼스,서울,사립,서울특별시 서대문구 거북골로 34,서울특별시 서대문구 남가좌동 50-3,37.58037702,126.9213485,1993-03-01
대학원,명지대학교 문화예술대학원,제2캠퍼스,서울,사립,서울특별시 서대문구 거북골로 34,서울특별시 서대문구 남가좌동 50-3,37.58037702,126.9213485,2001-03-01
대학원,명지대학교 사회교육대학원,제2캠퍼스,서울,사립,서울특별시 서대문구 거북골로 34,서울특별시 서대문구 남가좌동 50-3,37.58037702,126.9213485,1988-03-01
대학원,명지대학교 사회복지대학원,제2캠퍼스,서울,사립,서울특별시 서대문구 거북골로 34,서울특별시 서대문구 남가좌동 50-3,37.58037702,126.9213485,2003-03-01
대학원,명지대학교 산업대학원,제2캠퍼스,경기,사립,경기도 용인시 처인구 명지로 116,경기도 용인시 처인구 남동 555,37.22180726,127.1901837,1990-09-01
대학원,명지대학교 기록과학대학원,제2캠퍼스,서울,사립,서울특별시 서대문구 거북골로 34,서울특별시 서대문구 남가좌동 50-3,37.58037702,126.9213485,2000-03-01
대학원,명지대학교 부동산대학원,제2캠퍼스,서울,사립,서울특별시 서대문구 거북골로 34,서울특별시 서대문구 남가좌동 50-3,37.58037702,126.9213485,2012-03-01
대학원,명지대학교 부동산ㆍ유통경영대학원,제2캠퍼스,서울,사립,서울특별시 서대문구 거북골로 34,서울특별시 서대문구 남가좌동 50-3,37.58037702,126.9213485,2005-03-02
대학원,명지대학교 기록정보과학전문대학원,제2캠퍼스,서울,사립,서울특별시 서대문구 거북골로 34,서울특별시 서대문구 남가좌동 50-3,37.58037702,126.9213485,2006-11-29
대학원,목원대학교 일반대학원,본교,대전,사립,대전광역시 서구 도안북로 88,대전광역시 서구 도안동 800,36.32886613,127.3374467,1980-11-03
대학원,목원대학교 교육대학원,본교,대전,사립,대전광역시 서구 도안북로 88,대전광역시 서구 도안동 800,36.32886613,127.3374467,1999-11-19
대학원,목원대학교 신학대학원,본교,대전,사립,대전광역시 서구 도안북로 88,대전광역시 서구 도안동 800,36.32886613,127.3374467,1981-11-25
대학원,목원대학교 언론광고홍보대학원,본교,대전,사립,대전광역시 서구 도안북로 88,대전광역시 서구 도안동 800,36.32886613,127.3374467,1999-11-02
대학원,목원대학교 산업정보언론대학원,본교,대전,사립,대전광역시 서구 도안북로 88,대전광역시 서구 도안동 800,36.32886613,127.3374467,1997-10-25
대학원,배재대학교 대학원,본교,대전,사립,대전광역시 서구 배재로 155-40,대전광역시 서구 도마동 439-6,36.32323828,127.3660745,1987-11-09
대학원,배재대학교 교육대학원,본교,대전,사립,대전광역시 서구 배재로 155-40,대전광역시 서구 도마동 439-6,36.32323828,127.3660745,2009-03-01
대학원,배재대학교 국제통상대학원,본교,대전,사립,대전광역시 서구 배재로 155-40,대전광역시 서구 도마동 439-6,36.32323828,127.3660745,1996-11-02
대학원,배재대학교 관광축제호텔대학원,본교,대전,사립,대전광역시 서구 배재로 155-40,대전광역시 서구 도마동 439-6,36.32323828,127.3660745,2009-03-01
대학원,배재대학교 법무・행정대학원,본교,대전,사립,대전광역시 서구 배재로 155-40,대전광역시 서구 도마동 439-6,36.32323828,127.3660745,2009-03-01
대학원,배재대학교 컨설팅대학원,본교,대전,사립,대전광역시 서구 배재로 155-40,대전광역시 서구 도마동 439-6,36.32323828,127.3660745,2010-03-01
대학원,배재대학교 한류문화산업대학원,본교,대전,사립,대전광역시 서구 배재로 155-40,대전광역시 서구 도마동 439-6,36.32323828,127.3660745,2012-03-01
대학원,부산가톨릭대학교 대학원,본교,부산,사립,부산광역시 금정구 오륜대로 57,부산광역시 금정구 부곡동 9,35.24467531,129.096872,1994-12-16
대학원,부산가톨릭대학교 생명과학대학원,본교,부산,사립,부산광역시 금정구 오륜대로 57,부산광역시 금정구 부곡동 9,35.24467531,129.096872,1999-11-02
대학원,부산외국어대학교 대학원,본교,부산,사립,부산광역시 금정구 금샘로485번길 65,부산광역시 금정구 남산동 857-1,35.26618949,129.0805533,1988-11-30
대학원,부산외국어대학교 교육대학원,본교,부산,사립,부산광역시 금정구 금샘로485번길 65,부산광역시 금정구 남산동 857-1,35.26618949,129.0805533,1990-03-01
대학원,부산외국어대학교 통역번역대학원,본교,부산,사립,부산광역시 금정구 금샘로485번길 65,부산광역시 금정구 남산동 857-1,35.26618949,129.0805533,2003-03-01
대학원,부산외국어대학교 TESOL 대학원,본교,부산,사립,부산광역시 금정구 금샘로485번길 65,부산광역시 금정구 남산동 857-1,35.26618949,129.0805533,1981-12-26
대학원,부산외국어대학교 국제통상경영대학원,본교,부산,사립,부산광역시 금정구 금샘로485번길 65,부산광역시 금정구 남산동 857-1,35.26618949,129.0805533,1981-12-26
대학원,삼육대학교 대학원,본교,서울,사립,서울특별시 노원구 화랑로 815,서울특별시 노원구 공릉동 26-21,37.64335737,127.1088503,1980-11-24
대학원,삼육대학교 경영대학원,본교,서울,사립,서울특별시 노원구 화랑로 815,서울특별시 노원구 공릉동 26-21,37.64335737,127.1088503,1996-11-02
대학원,삼육대학교 신학전문대학원,본교,서울,사립,서울특별시 노원구 화랑로 815,서울특별시 노원구 공릉동 26-21,37.64335737,127.1088503,1988-11-30
대학원,삼육대학교 보건복지대학원,본교,서울,사립,서울특별시 노원구 화랑로 815,서울특별시 노원구 공릉동 26-21,37.64335737,127.1088503,2000-07-18
대학원,상명대학교 대학원,본교,서울,사립,서울특별시 종로구 홍지문2길 20,서울특별시 종로구 홍지동 7-1,37.60410891,126.9551595,1978-12-30
대학원,상명대학교 경영대학원,본교,서울,사립,서울특별시 종로구 홍지문2길 20,서울특별시 종로구 홍지동 7-1,37.60410891,126.9551595,2012-01-27
대학원,상명대학교 교육대학원,본교,서울,사립,서울특별시 종로구 홍지문2길 20,서울특별시 종로구 홍지동 7-1,37.60410891,126.9551595,1989-11-06
대학원,상명대학교 예술디자인대학원,본교,서울,사립,서울특별시 종로구 홍지문2길 20,서울특별시 종로구 홍지동 7-1,37.60410891,126.9551595,2012-01-27
대학원,상명대학교 복지상담대학원,본교,서울,사립,서울특별시 종로구 홍지문2길 20,서울특별시 종로구 홍지동 7-1,37.60410891,126.9551595,2008-05-21
대학원,상지대학교 대학원,본교,강원,사립,강원특별자치도 원주시 상지대길 83,강원특별자치도 원주시 우산동 660,37.36911929,127.9299151,1955-06-10
대학원,상지대학교 교육대학원,본교,강원,사립,강원특별자치도 원주시 상지대길 83,강원특별자치도 원주시 우산동 660,37.36911929,127.9299151,1955-06-10
대학원,상지대학교 평화안보.상담심리대학원,본교,강원,사립,강원특별자치도 원주시 상지대길 83,강원특별자치도 원주시 우산동 660,37.36911929,127.9299151,1955-06-10
대학원,상지대학교 사회복지정책대학원,본교,강원,사립,강원특별자치도 원주시 상지대길 83,강원특별자치도 원주시 우산동 660,37.36911929,127.9299151,1955-06-10
대학원,상지대학교 경영.행정.산업대학원,본교,강원,사립,강원특별자치도 원주시 상지대길 83,강원특별자치도 원주시 우산동 660,37.36911929,127.9299151,1955-06-10
대학원,서강대학교 대학원,본교,서울,사립,서울특별시 마포구 백범로 35,서울특별시 마포구 신수동 1-1,37.55146931,126.943025,1968-03-02
대학원,서강대학교 경제대학원,본교,서울,사립,서울특별시 마포구 백범로 35,서울특별시 마포구 신수동 1-1,37.55146931,126.943025,1990-11-09
대학원,서강대학교 공공정책대학원,본교,서울,사립,서울특별시 마포구 백범로 35,서울특별시 마포구 신수동 1-1,37.55146931,126.943025,1987-11-09
대학원,서강대학교 교육대학원,본교,서울,사립,서울특별시 마포구 백범로 35,서울특별시 마포구 신수동 1-1,37.55146931,126.943025,1989-11-06
대학원,서강대학교 국제대학원,본교,서울,사립,서울특별시 마포구 백범로 35,서울특별시 마포구 신수동 1-1,37.55146931,126.943025,1996-12-03
대학원,서강대학교 신학대학원,본교,서울,사립,서울특별시 마포구 백범로 35,서울특별시 마포구 신수동 1-1,37.55146931,126.943025,1994-12-15
대학원,서강대학교 언론대학원,본교,서울,사립,서울특별시 마포구 백범로 35,서울특별시 마포구 신수동 1-1,37.55146931,126.943025,1991-11-15
대학원,서강대학교 정보통신대학원,본교,서울,사립,서울특별시 마포구 백범로 35,서울특별시 마포구 신수동 1-1,37.55146931,126.943025,1996-12-27
대학원,서강대학교 영상대학원,본교,서울,사립,서울특별시 마포구 백범로 35,서울특별시 마포구 신수동 1-1,37.55146931,126.943025,1999-09-01
대학원,서강대학교 경영전문대학원,본교,서울,사립,서울특별시 마포구 백범로 35,서울특별시 마포구 신수동 1-1,37.55146931,126.943025,2006-09-01
대학원,서강대학교 법학전문대학원,본교,서울,사립,서울특별시 마포구 백범로 35,서울특별시 마포구 신수동 1-1,37.55146931,126.943025,2009-03-01
대학원,서강대학교 기술경영전문대학원,본교,서울,사립,서울특별시 마포구 백범로 35,서울특별시 마포구 신수동 1-1,37.55146931,126.943025,2011-02-22
대학원,서경대학교 일반대학원,본교,서울,사립,서울특별시 성북구 서경로 124,서울특별시 성북구 정릉동 산 16-1,37.61541478,127.0135658,1992-07-28
대학원,서경대학교 경영대학원,본교,서울,사립,서울특별시 성북구 서경로 124,서울특별시 성북구 정릉동 산 16-1,37.61541478,127.0135658,2008-03-01
대학원,서경대학교 미용예술대학원,본교,서울,사립,서울특별시 성북구 서경로 124,서울특별시 성북구 정릉동 산 16-1,37.61541478,127.0135658,2003-09-01
대학원,서울신학대학교 대학원,본교,경기,사립,경기도 부천시 소사구 호현로489번길 52,경기도 부천시 소사구 소사본동 101-1,37.47832495,126.7900035,1971-01-25
대학원,서울신학대학교 사회복지대학원,본교,경기,사립,경기도 부천시 소사구 호현로489번길 52,경기도 부천시 소사구 소사본동 101-1,37.47832495,126.7900035,1995-10-18
대학원,서울신학대학교 신학대학원,본교,경기,사립,경기도 부천시 소사구 호현로489번길 52,경기도 부천시 소사구 소사본동 101-1,37.47832495,126.7900035,1980-11-03
대학원,서울신학대학교 상담대학원,본교,경기,사립,경기도 부천시 소사구 호현로489번길 52,경기도 부천시 소사구 소사본동 101-1,37.47832495,126.7900035,1996-11-02
대학원,서울신학대학교 신학전문대학원,본교,경기,사립,경기도 부천시 소사구 호현로489번길 52,경기도 부천시 소사구 소사본동 101-1,37.47832495,126.7900035,2004-03-02
대학원,서울여자대학교 대학원,본교,서울,사립,서울특별시 노원구 화랑로 621,서울특별시 노원구 공릉동 126,37.62878266,127.0889915,1979-12-05
대학원,서울여자대학교 교육대학원,본교,서울,사립,서울특별시 노원구 화랑로 621,서울특별시 노원구 공릉동 126,37.62878266,127.0889915,1996-10-30
대학원,서울여자대학교 특수치료전문대학원,본교,서울,사립,서울특별시 노원구 화랑로 621,서울특별시 노원구 공릉동 126,37.62878266,127.0889915,2001-03-01
대학원,서울여자대학교 사회복지・기독교대학원,본교,서울,사립,서울특별시 노원구 화랑로 621,서울특별시 노원구 공릉동 126,37.62878266,127.0889915,2007-03-01
대학원,서울장신대학교 일반대학원,본교,경기,사립,경기도 광주시 경안로 145,경기도 광주시 경안동 219-1,37.40918211,127.2454526,2006-03-02
대학원,서울장신대학교 교회음악대학원,본교,경기,사립,경기도 광주시 경안로 145,경기도 광주시 경안동 219-1,37.40918211,127.2454526,2004-03-02
대학원,서울장신대학교 신학대학원,본교,경기,사립,경기도 광주시 경안로 145,경기도 광주시 경안동 219-1,37.40918211,127.2454526,2003-03-01
대학원,서울장신대학교 자연치유선교대학원,본교,경기,사립,경기도 광주시 경안로 145,경기도 광주시 경안동 219-1,37.40918211,127.2454526,2004-03-18
대학원,서울장신대학교 예배찬양사역대학원,본교,경기,사립,경기도 광주시 경안로 145,경기도 광주시 경안동 219-1,37.40918211,127.2454526,2004-03-18
대학원,서울장신대학교 전인치유선교대학원,본교,경기,사립,경기도 광주시 경안로 145,경기도 광주시 경안동 219-1,37.40918211,127.2454526,2004-03-18
대학원,서원대학교 교육대학원,본교,충북,사립,충청북도 청주시 서원구 무심서로 377-3,충청북도 청주시 서원구 모충동 231,36.62597974,127.4821176,1995-03-04
대학원,서원대학교 산업대학원,본교,충북,사립,충청북도 청주시 서원구 무심서로 377-3,충청북도 청주시 서원구 모충동 231,36.62597974,127.4821176,2001-03-05
대학원,선문대학교 대학원,본교,충남,사립,충청남도 아산시 탕정면 선문로221번길 70,충청남도 아산시 탕정면 갈산리 100,36.80104126,127.0757328,1994-10-21
대학원,선문대학교 경영대학원,본교,충남,사립,충청남도 아산시 탕정면 선문로221번길 70,충청남도 아산시 탕정면 갈산리 100,36.80104126,127.0757328,1990-03-08
대학원,선문대학교 교육대학원,본교,충남,사립,충청남도 아산시 탕정면 선문로221번길 70,충청남도 아산시 탕정면 갈산리 100,36.80104126,127.0757328,1999-11-19
대학원,선문대학교 사회복지대학원,본교,충남,사립,충청남도 아산시 탕정면 선문로221번길 70,충청남도 아산시 탕정면 갈산리 100,36.80104126,127.0757328,1999-11-02
대학원,선문대학교 통번역대학원,본교,충남,사립,충청남도 아산시 탕정면 선문로221번길 70,충청남도 아산시 탕정면 갈산리 100,36.80104126,127.0757328,2000-08-08
대학원,선문대학교 행정대학원,본교,충남,사립,충청남도 아산시 탕정면 선문로221번길 70,충청남도 아산시 탕정면 갈산리 100,36.80104126,127.0757328,2006-06-14
대학원,선문대학교 신학전문대학원,본교,충남,사립,충청남도 아산시 탕정면 선문로221번길 70,충청남도 아산시 탕정면 갈산리 100,36.80104126,127.0757328,2000-08-08
대학원,선문대학교 통합의학대학원,본교,충남,사립,충청남도 아산시 탕정면 선문로221번길 70,충청남도 아산시 탕정면 갈산리 100,36.80104126,127.0757328,2010-03-01
대학원,성결대학교 일반대학원,본교,경기,사립,경기도 안양시 만안구 성결대학로 53,경기도 안양시 만안구 안양동 400-10,37.37986572,126.9288104,2000-07-18
대학원,성결대학교 교육대학원,본교,경기,사립,경기도 안양시 만안구 성결대학로 53,경기도 안양시 만안구 안양동 400-10,37.37986572,126.9288104,1997-11-01
대학원,성결대학교 사회복지대학원,본교,경기,사립,경기도 안양시 만안구 성결대학로 53,경기도 안양시 만안구 안양동 400-10,37.37986572,126.9288104,1995-10-08
